{
  "type": "FeatureCollection",
  "features": [
    {
      "type": "Feature",
      "geometry": {
        "type": "Point",
        "coordinates": [
          101.7099983,
          3.1505932
        ]
      },
      "properties": {
        "Name": "FAMILYMART Wisma Lim Foo Yong",
        "Address": "Lot G-01, Ground Floor, Wisma Lim Foo Yong, 86, Jalan Raja Chulan, 50200 Kuala Lumpur",
        "Postcode": 50200,
        "Coordinates": "3.1505932,101.7099983",
        "State": "Wp Kuala Lumpur",
        "District": "Kuala Lumpur"
      }
    },
    {
      "type": "Feature",
      "geometry": {
        "type": "Point",
        "coordinates": [
          101.6774073,
          3.1175628
        ]
      },
      "properties": {
        "Name": "FAMILYMART Mid Valley",
        "Address": "F-027C, Level 1, North Court, Mid Valley Megamall, Mid Valley City, Lingkaran Syed Putra, 59200 Kuala Lumpur.",
        "Postcode": 59200,
        "Coordinates": "3.1175628,101.6774073",
        "State": "Wp Kuala Lumpur",
        "District": "Kuala Lumpur"
      }
    },
    {
      "type": "Feature",
      "geometry": {
        "type": "Point",
        "coordinates": [
          101.7229622,
          3.1343589
        ]
      },
      "properties": {
        "Name": "FAMILYMART MyTown",
        "Address": "Lot No. B1 - 031, Basement 1, Mytown Shopping Centre, No 6, Jalan Cochrane Seksyen 90, 55100 Kuala Lumpur",
        "Postcode": 55100,
        "Coordinates": "3.1343589,101.7229622",
        "State": "Wp Kuala Lumpur",
        "District": "Kuala Lumpur"
      }
    },
    {
      "type": "Feature",
      "geometry": {
        "type": "Point",
        "coordinates": [
          101.6159855,
          3.0638548
        ]
      },
      "properties": {
        "Name": "FAMILYMART Taylor Lakeside",
        "Address": "G-6, Ground Floor, The Broadwalk. No 2, Jalan Taylor's, Subang Jaya, 47500 Selangor",
        "Postcode": 47500,
        "Coordinates": "3.0638548,101.6159855",
        "State": "Selangor",
        "District": "Subang Jaya"
      }
    },
    {
      "type": "Feature",
      "geometry": {
        "type": "Point",
        "coordinates": [
          101.608976,
          3.065856
        ]
      },
      "properties": {
        "Name": "FAMILYMART Sunway Medical Centre",
        "Address": "Lot C-G-R01, Sunway Medical Centre, Tower C, 5 Jalan Lagoon Selatan, Bandar Sunway, 47500 Petaling Jaya, Selangor",
        "Postcode": 47500,
        "Coordinates": "3.065856,101.608976",
        "State": "Selangor",
        "District": "Subang Jaya"
      }
    },
    {
      "type": "Feature",
      "geometry": {
        "type": "Point",
        "coordinates": [
          101.7174159,
          3.1599106
        ]
      },
      "properties": {
        "Name": "FAMILYMART Menara Citibank",
        "Address": "Suite 1.06, Level 1 Menara Citibank, 165 Jalan Ampang, 50450 Kuala Lumpur",
        "Postcode": 50450,
        "Coordinates": "3.1599106,101.7174159",
        "State": "Wp Kuala Lumpur",
        "District": "Kuala Lumpur"
      }
    },
    {
      "type": "Feature",
      "geometry": {
        "type": "Point",
        "coordinates": [
          101.6471182,
          3.104607
        ]
      },
      "properties": {
        "Name": "FAMILYMART Amcorp Mall",
        "Address": "G-02, Ground Floor, PJ Tower, 18 Persiaran Barat, 46050 Petaling Jaya, Selangor, Malaysia",
        "Postcode": 46050,
        "Coordinates": "3.104607,101.6471182",
        "State": "Selangor",
        "District": "Petaling Jaya"
      }
    },
    {
      "type": "Feature",
      "geometry": {
        "type": "Point",
        "coordinates": [
          101.7199536,
          3.1613001
        ]
      },
      "properties": {
        "Name": "FAMILYMART Intermark",
        "Address": "Lot C-06, Concourse floor, Intermark Mall, 348, Jalan Tun Razak, Kampung Datuk Keramat, 50400 Kuala Lumpur, Wilayah Persekutuan Kuala Lumpur",
        "Postcode": 50400,
        "Coordinates": "3.1613001,101.7199536",
        "State": "Wp Kuala Lumpur",
        "District": "Kuala Lumpur"
      }
    },
    {
      "type": "Feature",
      "geometry": {
        "type": "Point",
        "coordinates": [
          101.6025946,
          3.0687217
        ]
      },
      "properties": {
        "Name": "FAMILYMART Bandar Sunway",
        "Address": "17, Jalan PJS 11/9, Bandar Sunway, 46150 Petaling Jaya, Selangor",
        "Postcode": 46150,
        "Coordinates": "3.0687217,101.6025946",
        "State": "Selangor",
        "District": "Petaling Jaya"
      }
    },
    {
      "type": "Feature",
      "geometry": {
        "type": "Point",
        "coordinates": [
          101.5940275,
          3.0796503
        ]
      },
      "properties": {
        "Name": "FAMILYMART Subang Jaya Medical Centre",
        "Address": "Lot G1-03, Subang Jaya Medical Centre (North Tower Annex Block), 1 Jalan SS12/1A, 47500 Subang Jaya, Selangor",
        "Postcode": 47500,
        "Coordinates": "3.0796503,101.5940275",
        "State": "Selangor",
        "District": "Subang Jaya"
      }
    },
    {
      "type": "Feature",
      "geometry": {
        "type": "Point",
        "coordinates": [
          101.7939901,
          3.4235071
        ]
      },
      "properties": {
        "Name": "FAMILYMART Awana Skyway",
        "Address": "Lot No. 2-3, Level 2, Awana Skyway Station, Genting Highlands Resorts, 69000 Genting Highlands, Pahang",
        "Postcode": 69000,
        "Coordinates": "3.4235071,101.7939901",
        "State": "Pahang",
        "District": "Genting Highlands"
      }
    },
    {
      "type": "Feature",
      "geometry": {
        "type": "Point",
        "coordinates": [
          101.4389899,
          3.0078898
        ]
      },
      "properties": {
        "Name": "FAMILYMART Bukit Tinggi, Klang",
        "Address": "8-00-1, Lorong Batu Nilam 4A, Bandar Bukit Tinggi, 41200 Klang, Selangor",
        "Postcode": 41200,
        "Coordinates": "3.0078898,101.4389899",
        "State": "Selangor",
        "District": "Klang"
      }
    },
    {
      "type": "Feature",
      "geometry": {
        "type": "Point",
        "coordinates": [
          101.593544,
          3.0602399
        ]
      },
      "properties": {
        "Name": "FAMILYMART Summit USJ",
        "Address": "Lot G (0), The Summit USJ, 38, Perisaran Kewajipan, Usj 1, 47600 Subang Jaya",
        "Postcode": 47600,
        "Coordinates": "3.0602399,101.593544",
        "State": "Selangor",
        "District": "Subang Jaya"
      }
    },
    {
      "type": "Feature",
      "geometry": {
        "type": "Point",
        "coordinates": [
          101.7074477,
          3.1523579
        ]
      },
      "properties": {
        "Name": "FAMILYMART Menara Hap Seng",
        "Address": "Lot G11, Ground Floor, Menara Hap Seng, Jalan P.Ramlee,50250, Kuala Lumpur",
        "Postcode": 50250,
        "Coordinates": "3.1523579,101.7074477",
        "State": "Wp Kuala Lumpur",
        "District": "Kuala Lumpur"
      }
    },
    {
      "type": "Feature",
      "geometry": {
        "type": "Point",
        "coordinates": [
          101.6116671,
          3.1561358
        ]
      },
      "properties": {
        "Name": "FAMILYMART Ikano Power Centre",
        "Address": "Lot LG 1.11, Lower Ground floor, IPC Shopping Centre,  No. 2, Jalan PJU 7/2, Mutiara Damansara, 47800, Petaling Jaya, Selangor",
        "Postcode": 47800,
        "Coordinates": "3.1561358,101.6116671",
        "State": "Selangor",
        "District": "Petaling Jaya"
      }
    },
    {
      "type": "Feature",
      "geometry": {
        "type": "Point",
        "coordinates": [
          101.6949001,
          3.0710907
        ]
      },
      "properties": {
        "Name": "FAMILYMART Sri Petaling",
        "Address": "No 75G, Jalan Radin Bagus, Bandar Sri Petaling, 57000, Kuala Lumpur",
        "Postcode": 57000,
        "Coordinates": "3.0710907,101.6949001",
        "State": "Wp Kuala Lumpur",
        "District": "Kuala Lumpur"
      }
    },
    {
      "type": "Feature",
      "geometry": {
        "type": "Point",
        "coordinates": [
          101.6676501,
          3.1107845
        ]
      },
      "properties": {
        "Name": "FAMILYMART Bangsar South",
        "Address": "Unit UG-3, Level UG, The Sphere, No 1, Avenue 1, Bangsar South, No 8, Jalan Kerinchi, 59200 Kuala Lumpur",
        "Postcode": 59200,
        "Coordinates": "3.1107845,101.6676501",
        "State": "Wp Kuala Lumpur",
        "District": "Kuala Lumpur"
      }
    },
    {
      "type": "Feature",
      "geometry": {
        "type": "Point",
        "coordinates": [
          101.7177432,
          3.2016719
        ]
      },
      "properties": {
        "Name": "FAMILYMART Danau Niaga",
        "Address": "No. 6 Plaza Usahawan Genting Klang (Plaza Crystalville), Jalan Danau Niaga, Taman Danau Kota, 53300, Kuala Lumpur",
        "Postcode": 53300,
        "Coordinates": "3.2016719,101.7177432",
        "State": "Wp Kuala Lumpur",
        "District": "Setapak"
      }
    },
    {
      "type": "Feature",
      "geometry": {
        "type": "Point",
        "coordinates": [
          101.6159596,
          3.0262859
        ]
      },
      "properties": {
        "Name": "FAMILYMART Bandar Puteri Puchong",
        "Address": "No 18, Jalan Puteri 1/2, Bandar Puteri, Puchong, 47100, Selangor",
        "Postcode": 47100,
        "Coordinates": "3.0262859,101.6159596",
        "State": "Selangor",
        "District": "Puchong"
      }
    },
    {
      "type": "Feature",
      "geometry": {
        "type": "Point",
        "coordinates": [
          101.6506835,
          3.1630565
        ]
      },
      "properties": {
        "Name": "FAMILYMART Sri Hartamas",
        "Address": "28(Ground Floor), Jalan 24/70A, Desa Sri Hartamas, 50480, Kuala Lumpur",
        "Postcode": 50480,
        "Coordinates": "3.1630565,101.6506835",
        "State": "Wp Kuala Lumpur",
        "District": "Kuala Lumpur"
      }
    },
    {
      "type": "Feature",
      "geometry": {
        "type": "Point",
        "coordinates": [
          101.7937601,
          3.0402027
        ]
      },
      "properties": {
        "Name": "FAMILYMART Sungai Long",
        "Address": "No 16, Jalan SL 1/2, Bandar Sg Long, 43000, Kajang, Selangor",
        "Postcode": 43000,
        "Coordinates": "3.0402027,101.7937601",
        "State": "Selangor",
        "District": "Kajang"
      }
    },
    {
      "type": "Feature",
      "geometry": {
        "type": "Point",
        "coordinates": [
          101.6363923,
          3.1095615
        ]
      },
      "properties": {
        "Name": "FAMILYMART PJ Sek. 14",
        "Address": "No. 13 Jalan 14/20, Petaling Jaya, 46100 Selangor Darul Ehsan",
        "Postcode": 46100,
        "Coordinates": "3.1095615,101.6363923",
        "State": "Selangor",
        "District": "Petaling Jaya"
      }
    },
    {
      "type": "Feature",
      "geometry": {
        "type": "Point",
        "coordinates": [
          101.7658877,
          3.0357746
        ]
      },
      "properties": {
        "Name": "FAMILYMART C180 Belakong",
        "Address": "31-G, Jalan C180/1, Dataran C180, 43200 Cheras, Selangor Darul Ehsan",
        "Postcode": 43200,
        "Coordinates": "3.0357746,101.7658877",
        "State": "Selangor",
        "District": "Cheras"
      }
    },
    {
      "type": "Feature",
      "geometry": {
        "type": "Point",
        "coordinates": [
          101.5392774,
          3.0029526
        ]
      },
      "properties": {
        "Name": "FAMILYMART Kota Kemuning",
        "Address": "No.29-G, Jalan Anggerik Vanilla X 31/X, Kota Kemuning, Seksyen 31, 40460 Shah Alam, Selangor",
        "Postcode": 40460,
        "Coordinates": "3.0029526,101.5392774",
        "State": "Selangor",
        "District": "Shah Alam"
      }
    },
    {
      "type": "Feature",
      "geometry": {
        "type": "Point",
        "coordinates": [
          101.591537,
          3.1508511
        ]
      },
      "properties": {
        "Name": "FAMILYMART Sunway Giza",
        "Address": "Lot G12, Sunway Giza Mall, No.2, Jalan PJU 5/14, PJU 5, Kota Damansara, 47810 Petaling Jaya, Selangor",
        "Postcode": 47810,
        "Coordinates": "3.1508511,101.591537",
        "State": "Selangor",
        "District": "Petaling Jaya"
      }
    },
    {
      "type": "Feature",
      "geometry": {
        "type": "Point",
        "coordinates": [
          101.5744568,
          3.1141554
        ]
      },
      "properties": {
        "Name": "FAMILYMART Oasis Ara Damansara",
        "Address": "R-13, Ara Damansara, Oasis Square, No. 2, Jalan PJU 1A/7A, Petaling Jaya, 47301 Selangor",
        "Postcode": 47301,
        "Coordinates": "3.1141554,101.5744568",
        "State": "Selangor",
        "District": "Petaling Jaya"
      }
    },
    {
      "type": "Feature",
      "geometry": {
        "type": "Point",
        "coordinates": [
          101.4597346,
          3.0568733
        ]
      },
      "properties": {
        "Name": "FAMILYMART Eng Ann",
        "Address": "No 2, Lorong Kasawari 4B, Taman Eng Ann, Klang, 41150 Selangor",
        "Postcode": 41150,
        "Coordinates": "3.0568733,101.4597346",
        "State": "Selangor",
        "District": "Klang"
      }
    },
    {
      "type": "Feature",
      "geometry": {
        "type": "Point",
        "coordinates": [
          101.719161,
          3.0285941
        ]
      },
      "properties": {
        "Name": "FAMILYMART The Mines",
        "Address": "The Mines, L2-K6, Level 2, Jalan Dulang, Mines Resort City, Seri Kembangan, 43300 Selangor",
        "Postcode": 43300,
        "Coordinates": "3.0285941,101.719161",
        "State": "Selangor",
        "District": "Seri Kembangan"
      }
    },
    {
      "type": "Feature",
      "geometry": {
        "type": "Point",
        "coordinates": [
          101.6163049,
          3.2116395
        ]
      },
      "properties": {
        "Name": "FAMILYMART Desa Aman Puri",
        "Address": "1-36A, Jalan Desa 1/3, Desa Aman Puri, Kepong 52100 Kuala Lumpur",
        "Postcode": 52100,
        "Coordinates": "3.2116395,101.6163049",
        "State": "Wp Kuala Lumpur",
        "District": "Kuala Lumpur"
      }
    },
    {
      "type": "Feature",
      "geometry": {
        "type": "Point",
        "coordinates": [
          101.6866774,
          3.0896505
        ]
      },
      "properties": {
        "Name": "FAMILYMART Kuchai Lama",
        "Address": "5G, Jalan Kuchai Maju 8, Kuchai Lama, 58200, Kuala Lumpur.",
        "Postcode": 58200,
        "Coordinates": "3.0896505,101.6866774",
        "State": "Wp Kuala Lumpur",
        "District": "Kuala Lumpur"
      }
    },
    {
      "type": "Feature",
      "geometry": {
        "type": "Point",
        "coordinates": [
          101.7140805,
          3.1294111
        ]
      },
      "properties": {
        "Name": "FAMILYMART Fraser Business Park",
        "Address": "48G, Jalan Metro Pudu 2, off Jalan Yew, 55100 Kuala Lumpur",
        "Postcode": 55100,
        "Coordinates": "3.1294111,101.7140805",
        "State": "Wp Kuala Lumpur",
        "District": "Kuala Lumpur"
      }
    },
    {
      "type": "Feature",
      "geometry": {
        "type": "Point",
        "coordinates": [
          101.5591832,
          3.0818819
        ]
      },
      "properties": {
        "Name": "FAMILYMART Glenmarie",
        "Address": "No 3, jalan Peniaga U1 / 34 , Glenmarie , Seksyen U 1 , 40150 Shah Alam",
        "Postcode": 40150,
        "Coordinates": "3.0818819,101.5591832",
        "State": "Selangor",
        "District": "Shah Alam"
      }
    },
    {
      "type": "Feature",
      "geometry": {
        "type": "Point",
        "coordinates": [
          101.3675832,
          3.1393929
        ]
      },
      "properties": {
        "Name": "FAMILYMART Kapar",
        "Address": "G - 270, KU/13, Jalan Besar, 42200 Kapar",
        "Postcode": 42200,
        "Coordinates": "3.1393929,101.3675832",
        "State": "Selangor",
        "District": "Kapar"
      }
    },
    {
      "type": "Feature",
      "geometry": {
        "type": "Point",
        "coordinates": [
          101.7520538,
          3.1321677
        ]
      },
      "properties": {
        "Name": "FAMILYMART Midpoint Shopping Complex",
        "Address": "Lot R.G.02, Level G, MidPoint Shopping Complex, Jalan Pandan Indah 1/25, Pandan Indah, 55100 Kuala Lumpur",
        "Postcode": 55100,
        "Coordinates": "3.1321677,101.7520538",
        "State": "Wp Kuala Lumpur",
        "District": "Kuala Lumpur"
      }
    },
    {
      "type": "Feature",
      "geometry": {
        "type": "Point",
        "coordinates": [
          101.5513462,
          3.0755839
        ]
      },
      "properties": {
        "Name": "FAMILYMART Menara U",
        "Address": "G-9 , Menara U, Jalan Boling Padang 13/62, Section 13, 40100 Shah Alam, Selangor",
        "Postcode": 40100,
        "Coordinates": "3.0755839,101.5513462",
        "State": "Selangor",
        "District": "Shah Alam"
      }
    },
    {
      "type": "Feature",
      "geometry": {
        "type": "Point",
        "coordinates": [
          101.70629,
          3.1550863
        ]
      },
      "properties": {
        "Name": "FAMILYMART Jalan Sultan Ismail (2)",
        "Address": "No.61, Ground Floor, Jalan Sultan Ismail, 50250 Wilayah Persekutuan Kuala Lumpur",
        "Postcode": 50250,
        "Coordinates": "3.1550863,101.70629",
        "State": "Wp Kuala Lumpur",
        "District": "Kuala Lumpur"
      }
    },
    {
      "type": "Feature",
      "geometry": {
        "type": "Point",
        "coordinates": [
          103.6688172,
          1.5144048
        ]
      },
      "properties": {
        "Name": "FAMILYMART Taman Sutera",
        "Address": "95, Sutera Tanjung 8/2, Taman Sutera Utama, 81300 Skudai, Johor",
        "Postcode": 81300,
        "Coordinates": "1.5144048,103.6688172",
        "State": "Johor",
        "District": "Johor Bahru"
      }
    },
    {
      "type": "Feature",
      "geometry": {
        "type": "Point",
        "coordinates": [
          101.6209854,
          3.0454422
        ]
      },
      "properties": {
        "Name": "FAMILYMART Bandar Puchong Jaya",
        "Address": "G7, Jalan Kenari 4, Bandar Puchong Jaya, 47170 Puchong, Selangor",
        "Postcode": 47170,
        "Coordinates": "3.0454422,101.6209854",
        "State": "Selangor",
        "District": "Puchong"
      }
    },
    {
      "type": "Feature",
      "geometry": {
        "type": "Point",
        "coordinates": [
          101.5847716,
          3.0810794
        ]
      },
      "properties": {
        "Name": "FAMILYMART Caltex Sungai Buloh",
        "Address": "Lot 37011, No. PU 469, Jalan Subang Sungai Buloh, Seksyen U3, 40150 Shah Alam, Selangor",
        "Postcode": 40150,
        "Coordinates": "3.0810794,101.5847716",
        "State": "Selangor ",
        "District": "Shah Alam"
      }
    },
    {
      "type": "Feature",
      "geometry": {
        "type": "Point",
        "coordinates": [
          101.6434936,
          3.2372191
        ]
      },
      "properties": {
        "Name": "FAMILYMART Taman Selayang Utama",
        "Address": "No 3, Jalan SU 10, Taman Selayang Utama, 68100 Batu Caves, Selangor",
        "Postcode": 68100,
        "Coordinates": "3.2372191,101.6434936",
        "State": "Selangor",
        "District": "Batu Caves"
      }
    },
    {
      "type": "Feature",
      "geometry": {
        "type": "Point",
        "coordinates": [
          101.6806402,
          3.1890556
        ]
      },
      "properties": {
        "Name": "FAMILYMART Kompleks Mutiara",
        "Address": "568-G-8 & 568-G-25, Kompleks Mutiara, 3 1/2 Miles, Jalan Ipoh, 52100 Kuala Lumpur",
        "Postcode": 52100,
        "Coordinates": "3.1890556,101.6806402",
        "State": "Wp Kuala Lumpur",
        "District": "Kuala Lumpur"
      }
    },
    {
      "type": "Feature",
      "geometry": {
        "type": "Point",
        "coordinates": [
          103.6653192,
          1.4807347
        ]
      },
      "properties": {
        "Name": "FAMILYMART Nusa Bestari",
        "Address": "14 (G), Jalan Bestari 2/2, Taman Nusa Bestari, 81200 Skudai, Johor",
        "Postcode": 81200,
        "Coordinates": "1.4807347,103.6653192",
        "State": "Johor",
        "District": "Johor Bahru"
      }
    },
    {
      "type": "Feature",
      "geometry": {
        "type": "Point",
        "coordinates": [
          101.6480663,
          3.0631571
        ]
      },
      "properties": {
        "Name": "FAMILYMART Caltex LDP Batu 14",
        "Address": "Lot 58753, Batu 14, Jalan Puchong, 47100 Puchong, Selangor",
        "Postcode": 47100,
        "Coordinates": "3.0631571,101.6480663",
        "State": "Selangor",
        "District": "Puchong"
      }
    },
    {
      "type": "Feature",
      "geometry": {
        "type": "Point",
        "coordinates": [
          101.6632209,
          2.994195
        ]
      },
      "properties": {
        "Name": "FAMILYMART Caltex Lestari Perdana",
        "Address": "Lot 45245, Persiaran Lestari Perdana, Taman Lestari Perdana, 43300 Seri Kembangan",
        "Postcode": 43300,
        "Coordinates": "2.994195,101.6632209",
        "State": "Selangor",
        "District": "Seri Kembangan"
      }
    },
    {
      "type": "Feature",
      "geometry": {
        "type": "Point",
        "coordinates": [
          103.7683755,
          1.492217
        ]
      },
      "properties": {
        "Name": "FAMILYMART Plaza Sentosa",
        "Address": "Unit 1A & Unit 25, Ground Floor, Block F, Plaza Sentosa, 80150 Johor Bahru",
        "Postcode": 80150,
        "Coordinates": "1.492217,103.7683755",
        "State": "Johor",
        "District": "Johor Bahru"
      }
    },
    {
      "type": "Feature",
      "geometry": {
        "type": "Point",
        "coordinates": [
          101.7620435,
          3.2063487
        ]
      },
      "properties": {
        "Name": "FAMILYMART Ampang Point",
        "Address": "87 (Ground Floor), Lorong Mamanda 1, Ampang Point, 68000 Ampang, Selangor",
        "Postcode": 68000,
        "Coordinates": "3.2063487,101.7620435",
        "State": "Selangor",
        "District": "Ampang"
      }
    },
    {
      "type": "Feature",
      "geometry": {
        "type": "Point",
        "coordinates": [
          101.5996253,
          3.0632018
        ]
      },
      "properties": {
        "Name": "FAMILYMART Sunway Monash Residences",
        "Address": "Lot L2-02-01A, Sunway Monash Residence, Persiaran Tasik Barat, Sunway South Quay, 47500 Subang Jaya, Selangor",
        "Postcode": 47500,
        "Coordinates": "3.0632018,101.5996253",
        "State": "Selangor",
        "District": "Subang Jaya"
      }
    },
    {
      "type": "Feature",
      "geometry": {
        "type": "Point",
        "coordinates": [
          101.6737622,
          3.0583153
        ]
      },
      "properties": {
        "Name": "FAMILYMART Bukit Jalil Jaya",
        "Address": "22, 2, Jalan Jalil Jaya 2, Jalil Link, 57000 Kuala Lumpur, Wilayah Persekutuan Kuala Lumpur",
        "Postcode": 57000,
        "Coordinates": "3.0583153,101.6737622",
        "State": "Wp Kuala Lumpur",
        "District": "Kuala Lumpur"
      }
    },
    {
      "type": "Feature",
      "geometry": {
        "type": "Point",
        "coordinates": [
          103.763596,
          1.4616246
        ]
      },
      "properties": {
        "Name": "FAMILYMART JB City Square",
        "Address": "Lot J2-18 Level 02, Johor Bahru City Square, 106-108, Jalan Wong Ah Fook, 8000 Johor Bahru, Johor.",
        "Postcode": 80000,
        "Coordinates": "1.4616246,103.763596",
        "State": "Johor",
        "District": "Johor Bahru"
      }
    },
    {
      "type": "Feature",
      "geometry": {
        "type": "Point",
        "coordinates": [
          101.671526,
          3.0832233
        ]
      },
      "properties": {
        "Name": "FAMILYMART Mega Mendung",
        "Address": "109, Jalan Mega Mendung, Bandar Complex, 58200 Kuala Lumpur",
        "Postcode": 58200,
        "Coordinates": "3.0832233,101.671526",
        "State": "Wp Kuala Lumpur",
        "District": "Kuala Lumpur"
      }
    },
    {
      "type": "Feature",
      "geometry": {
        "type": "Point",
        "coordinates": [
          101.6774073,
          3.1175628
        ]
      },
      "properties": {
        "Name": "FAMILYMART Mid Valley L3",
        "Address": "T-030A, Third Floor, Mid Valley Megamall, Lingkaran Syed Putra, 59200 Kuala Lumpur",
        "Postcode": 59200,
        "Coordinates": "3.1175628,101.6774073",
        "State": "Wp Kuala Lumpur",
        "District": "Kuala Lumpur"
      }
    },
    {
      "type": "Feature",
      "geometry": {
        "type": "Point",
        "coordinates": [
          101.4832435,
          3.0642848
        ]
      },
      "properties": {
        "Name": "FAMILYMART I-City Mall",
        "Address": "Lot LG-39, Sentral i-City Shopping Centre, Plot 1, I-City, Persiaran Multimedia, Seksyen 7, 40000 Shah Alam",
        "Postcode": 40000,
        "Coordinates": "3.0642848,101.4832435",
        "State": "Selangor",
        "District": "Shah Alam"
      }
    },
    {
      "type": "Feature",
      "geometry": {
        "type": "Point",
        "coordinates": [
          101.4283045,
          3.0274924
        ]
      },
      "properties": {
        "Name": "FAMILYMART Lebuh Turi",
        "Address": "No.112,Leboh Turi,Taman Chi Liung,41200 Klang",
        "Postcode": 41200,
        "Coordinates": "3.0274924,101.4283045",
        "State": "Selangor",
        "District": "Klang"
      }
    },
    {
      "type": "Feature",
      "geometry": {
        "type": "Point",
        "coordinates": [
          103.8045325,
          1.5404941
        ]
      },
      "properties": {
        "Name": "FAMILYMART Taman Johor Jaya",
        "Address": "No 22, Jalan Dedap 4, Taman Johor Jaya, 81100 Johor Bahru, Johor",
        "Postcode": 81100,
        "Coordinates": "1.5404941,103.8045325",
        "State": "Johor",
        "District": "Johor Bahru"
      }
    },
    {
      "type": "Feature",
      "geometry": {
        "type": "Point",
        "coordinates": [
          101.7109452,
          3.0620517
        ]
      },
      "properties": {
        "Name": "FAMILYMART Lake Fields",
        "Address": "63A, Jalan Tasik Utama 3, The Trillium, Lake Fields, Sungei Besi, 57000 Kuala Lumpur",
        "Postcode": 57000,
        "Coordinates": "3.0620517,101.7109452",
        "State": "Wp Kuala Lumpur",
        "District": "Kuala Lumpur"
      }
    },
    {
      "type": "Feature",
      "geometry": {
        "type": "Point",
        "coordinates": [
          101.793807,
          2.991374
        ]
      },
      "properties": {
        "Name": "FAMILYMART Metropoint Kajang",
        "Address": "Lot G2, Ground Floor, Metro Point Complex, Jalan Jelok 8, 43000 Kajang, Selangor Darul Ehsan",
        "Postcode": 43000,
        "Coordinates": "2.991374,101.793807",
        "State": "Selangor",
        "District": "Kajang"
      }
    },
    {
      "type": "Feature",
      "geometry": {
        "type": "Point",
        "coordinates": [
          102.2453593,
          2.1976578
        ]
      },
      "properties": {
        "Name": "FAMILYMART Jonker Street",
        "Address": "No. 127, Jalan Hang Jebat, 75200 Melaka",
        "Postcode": 75200,
        "Coordinates": "2.1976578,102.2453593",
        "State": "Melaka",
        "District": "Melaka"
      }
    },
    {
      "type": "Feature",
      "geometry": {
        "type": "Point",
        "coordinates": [
          103.7854838,
          1.5227809
        ]
      },
      "properties": {
        "Name": "FAMILYMART Taman Molek",
        "Address": "No 45, Ground Floor, Jalan Molek 3/10, Taman Molek, 81100 Johor Bahru, Johor",
        "Postcode": 81100,
        "Coordinates": "1.5227809,103.7854838",
        "State": "Johor",
        "District": "Johor Bahru"
      }
    },
    {
      "type": "Feature",
      "geometry": {
        "type": "Point",
        "coordinates": [
          103.6318646,
          1.5145793
        ]
      },
      "properties": {
        "Name": "FAMILYMART Mutiara Mas",
        "Address": "No. 2 , Jalan Mutiara 1/1, Taman Mutiara Mas, 81300 Skudai, Johor",
        "Postcode": 81300,
        "Coordinates": "1.5145793,103.6318646",
        "State": "Johor",
        "District": "Johor Bahru"
      }
    },
    {
      "type": "Feature",
      "geometry": {
        "type": "Point",
        "coordinates": [
          103.6189539,
          1.6417615
        ]
      },
      "properties": {
        "Name": "FAMILYMART Indahpura",
        "Address": "189, Jalan Kenanga 29/4, Indahpura, 81000 Kulai, Johor",
        "Postcode": 81000,
        "Coordinates": "1.6417615,103.6189539",
        "State": "Johor",
        "District": "Kulai"
      }
    },
    {
      "type": "Feature",
      "geometry": {
        "type": "Point",
        "coordinates": [
          101.777424,
          2.825131
        ]
      },
      "properties": {
        "Name": "FAMILYMART Mesamall",
        "Address": "G-03a, Ground Floor, Mesamall, Persiaran Ilmu, Bandar Baru Nilai, 71800 Nilai, Negeri Sembilan",
        "Postcode": 71800,
        "Coordinates": "2.825131,101.777424",
        "State": "Negeri Sembilan",
        "District": "Nilai"
      }
    },
    {
      "type": "Feature",
      "geometry": {
        "type": "Point",
        "coordinates": [
          103.8958761,
          1.4782193
        ]
      },
      "properties": {
        "Name": "FAMILYMART Bukit Dahlia",
        "Address": "No. 5, Jalan Sejambak 14, Taman Bukit Dahlia, 81700, Johor",
        "Postcode": 81700,
        "Coordinates": "1.4782193,103.8958761",
        "State": "Johor",
        "District": "Pasir Gudang"
      }
    },
    {
      "type": "Feature",
      "geometry": {
        "type": "Point",
        "coordinates": [
          101.9343249,
          2.6892153
        ]
      },
      "properties": {
        "Name": "FAMILYMART Rasah Prima",
        "Address": "No.12-G, Jalan Rasah Prima 1, Pusat Komersial Rasah Prima, 70300 Seremban, Negeri Sembilan",
        "Postcode": 70300,
        "Coordinates": "2.6892153,101.9343249",
        "State": "Negeri Sembilan",
        "District": "Seremban"
      }
    },
    {
      "type": "Feature",
      "geometry": {
        "type": "Point",
        "coordinates": [
          103.630079,
          1.543647
        ]
      },
      "properties": {
        "Name": "FAMILYMART Taman University",
        "Address": "No. 1 , Jalan Pendidikan 8, Taman Universiti, 81300 Skudai, Johor Bahru",
        "Postcode": 81300,
        "Coordinates": "1.543647,103.630079",
        "State": "Johor",
        "District": "Johor Bahru"
      }
    },
    {
      "type": "Feature",
      "geometry": {
        "type": "Point",
        "coordinates": [
          103.7800794,
          1.560941
        ]
      },
      "properties": {
        "Name": "FAMILYMART Taman Mount Austin",
        "Address": "5-1A-1, Jalan Austin Heights 3, Taman Mount Austin, 81100 Johor Bahru, Johor",
        "Postcode": 81100,
        "Coordinates": "1.560941,103.7800794",
        "State": "Johor",
        "District": "Johor Bahru"
      }
    },
    {
      "type": "Feature",
      "geometry": {
        "type": "Point",
        "coordinates": [
          101.7645341,
          3.138732
        ]
      },
      "properties": {
        "Name": "FAMILYMART Ampang Jaya",
        "Address": "No.1A-00-06, Pangsapuri Melati Merdeka Villa, Jalan Merdeka Villa, 68000 Ampang, Selangor",
        "Postcode": 68000,
        "Coordinates": "3.138732,101.7645341",
        "State": "Selangor",
        "District": "Ampang"
      }
    },
    {
      "type": "Feature",
      "geometry": {
        "type": "Point",
        "coordinates": [
          101.4150163,
          3.3834674
        ]
      },
      "properties": {
        "Name": "FAMILYMART Caltex Bestari Jaya",
        "Address": "PT 7490, Section 2, Kubang Badak, Pekan Bestari Jaya, 45000 Selangor",
        "Postcode": 45000,
        "Coordinates": "3.3834674,101.4150163",
        "State": "Selangor",
        "District": "Kuala Selangor"
      }
    },
    {
      "type": "Feature",
      "geometry": {
        "type": "Point",
        "coordinates": [
          101.4602178,
          3.1094685
        ]
      },
      "properties": {
        "Name": "FAMILYMART Setia City Mall",
        "Address": "#LG-20A, Setia City Mall, No. 7, Persiaran Setia Dagang, Bandar Setia Alam, Seksyen U13, 40170 Shah Alam, Selangor",
        "Postcode": 40170,
        "Coordinates": "3.1094685,101.4602178",
        "State": "Selangor",
        "District": "Shah Alam"
      }
    },
    {
      "type": "Feature",
      "geometry": {
        "type": "Point",
        "coordinates": [
          101.9188839,
          2.7169307
        ]
      },
      "properties": {
        "Name": "FAMILYMART Seremban Gateway",
        "Address": "Lot No 10 (A), Ground Floor, Gateway Off, Seremban - Bukit Nenas Highway, 70200 Seremban, Negeri Sembilan",
        "Postcode": 70200,
        "Coordinates": "2.7169307,101.9188839",
        "State": "Negeri Sembilan",
        "District": "Seremban"
      }
    },
    {
      "type": "Feature",
      "geometry": {
        "type": "Point",
        "coordinates": [
          101.955192,
          2.7228949
        ]
      },
      "properties": {
        "Name": "FAMILYMART Centrepoint Seremban",
        "Address": "G-14, Ground Floor, Centerpoint Seremban, 33, Jalan Dato Siamang Gagap, Betaria Business Centre, 70100 Seremban, Negeri Sembilan",
        "Postcode": 70100,
        "Coordinates": "2.7228949,101.955192",
        "State": "Negeri Sembilan",
        "District": "Seremban"
      }
    },
    {
      "type": "Feature",
      "geometry": {
        "type": "Point",
        "coordinates": [
          101.5828038,
          3.0817783
        ]
      },
      "properties": {
        "Name": "FAMILYMART Empire Subang",
        "Address": "LG-11, Lower Ground Level,  Empire Shopping Gallery, Jalan SS 16/1, 47500 Subang Jaya, Selangor",
        "Postcode": 47500,
        "Coordinates": "3.0817783,101.5828038",
        "State": "Selangor",
        "District": "Subang Jaya"
      }
    },
    {
      "type": "Feature",
      "geometry": {
        "type": "Point",
        "coordinates": [
          101.6669298,
          3.1197152
        ]
      },
      "properties": {
        "Name": "FAMILYMART Pantai KL Hospital",
        "Address": "Retail Lot 10, Ground floor, Block A, Pantai Hospital Kuala Lumpur, 8, Jalan Bukit Pantai, 59100, Kuala Lumpur",
        "Postcode": 59100,
        "Coordinates": "3.1197152,101.6669298",
        "State": "Wp Kuala Lumpur",
        "District": "Kuala Lumpur"
      }
    },
    {
      "type": "Feature",
      "geometry": {
        "type": "Point",
        "coordinates": [
          101.6874602,
          3.1006365
        ]
      },
      "properties": {
        "Name": "FAMILYMART Taman Danau Desa",
        "Address": "No. 1, Jalan 2/109F, Taman Danau Desa, 58100 Kuala Lumpur",
        "Postcode": 58100,
        "Coordinates": "3.1006365,101.6874602",
        "State": "Wp Kuala Lumpur",
        "District": "Kuala Lumpur"
      }
    },
    {
      "type": "Feature",
      "geometry": {
        "type": "Point",
        "coordinates": [
          101.605322,
          3.1885957
        ]
      },
      "properties": {
        "Name": "FAMILYMART Bandar Sri Damansara",
        "Address": "No. 11G, Jalan Tanjung, SD13/1, Bandar Sri Damansara, 52200 Kuala Lumpur",
        "Postcode": 52200,
        "Coordinates": "3.1885957,101.605322",
        "State": "Wp Kuala Lumpur",
        "District": "Kuala Lumpur"
      }
    },
    {
      "type": "Feature",
      "geometry": {
        "type": "Point",
        "coordinates": [
          101.4821904,
          2.9940851
        ]
      },
      "properties": {
        "Name": "FAMILYMART Sentosa Klang",
        "Address": "No. 6, Jalan Dato Yusuf Shabuddin 30, Taman Sentosa, 41200 Klang, Selangor",
        "Postcode": 41200,
        "Coordinates": "2.9940851,101.4821904",
        "State": "Selangor",
        "District": "Klang"
      }
    },
    {
      "type": "Feature",
      "geometry": {
        "type": "Point",
        "coordinates": [
          101.6566697,
          3.1639099
        ]
      },
      "properties": {
        "Name": "FAMILYMART Plaza Damas",
        "Address": "P-8A, Plaza Floor, No.60, Jalan Sri Hartamas 1, Taman Sri Hartamas, 50480 Kuala Lumpur",
        "Postcode": 50480,
        "Coordinates": "3.1639099,101.6566697",
        "State": "Wp Kuala Lumpur",
        "District": "Kuala Lumpur"
      }
    },
    {
      "type": "Feature",
      "geometry": {
        "type": "Point",
        "coordinates": [
          101.5718336,
          3.1648938
        ]
      },
      "properties": {
        "Name": "FAMILYMART PLUS Sg Buloh",
        "Address": "Lot R5, Restoran Jejantas Sg Buloh (Arah Selatan), KM 458.3, Lebuhraya Sg Buloh-Tanjung Malim , 47000 Sg Buloh, Selangor",
        "Postcode": 47000,
        "Coordinates": "3.1648938,101.5718336",
        "State": "Selangor",
        "District": "Sungai Buloh"
      }
    },
    {
      "type": "Feature",
      "geometry": {
        "type": "Point",
        "coordinates": [
          101.4450419,
          3.0561224
        ]
      },
      "properties": {
        "Name": "FAMILYMART Berkeley Uptown",
        "Address": "Lot 75, Jalan Delima, Off Jalan Kapar, 41400 Klang, Selangor",
        "Postcode": 41400,
        "Coordinates": "3.0561224,101.4450419",
        "State": "Selangor",
        "District": "Klang"
      }
    },
    {
      "type": "Feature",
      "geometry": {
        "type": "Point",
        "coordinates": [
          102.2533478,
          2.1878523
        ]
      },
      "properties": {
        "Name": "FAMILYMART Melaka Raya",
        "Address": "258, Jalan Melaka Raya 3, Taman Melaka Raya, 75000 Melaka",
        "Postcode": 75000,
        "Coordinates": "2.1878523,102.2533478",
        "State": "Melaka",
        "District": "Melaka"
      }
    },
    {
      "type": "Feature",
      "geometry": {
        "type": "Point",
        "coordinates": [
          101.6843387,
          3.1323673
        ]
      },
      "properties": {
        "Name": "FAMILYMART Plaza Sentral",
        "Address": "Unit 3A-G Ground Floor, Block 3A, Plaza Sentral, Jalan Stesen Sentral 5, KL Sentral, 50470-Kuala Lumpur",
        "Postcode": 50470,
        "Coordinates": "3.1323673,101.6843387",
        "State": "Wp Kuala Lumpur",
        "District": "Kuala Lumpur"
      }
    },
    {
      "type": "Feature",
      "geometry": {
        "type": "Point",
        "coordinates": [
          103.8018325,
          1.5904403
        ]
      },
      "properties": {
        "Name": "FAMILYMART Caltex Taman Puteri Wangsa",
        "Address": "Lot B, No.2, Jalan Beladau 31, Taman Puteri Wangsa, 81800 Ulu Tiram, Johor",
        "Postcode": 81800,
        "Coordinates": "1.5904403,103.8018325",
        "State": "Johor",
        "District": "Ulu Tiram"
      }
    },
    {
      "type": "Feature",
      "geometry": {
        "type": "Point",
        "coordinates": [
          101.6277335,
          3.1869487
        ]
      },
      "properties": {
        "Name": "FAMILYMART Waterfront @ Desa Park City",
        "Address": "GF-21H, Ground Floor, The Waterfront@ParkCity, No.5, Persiaran Residen, Desa Park City, 52200 Kuala Lumpur",
        "Postcode": 52200,
        "Coordinates": "3.1869487,101.6277335",
        "State": "Wp Kuala Lumpur",
        "District": "Kuala Lumpur"
      }
    },
    {
      "type": "Feature",
      "geometry": {
        "type": "Point",
        "coordinates": [
          103.8728633,
          1.4962035
        ]
      },
      "properties": {
        "Name": "FAMILYMART Gravity Green, Bandar Seri Alam",
        "Address": "Gravity Green, Bandar Seri Alam, Masai Gravity Green @ Bandar Seri Alam, Jalan Suria, Bandar Baru Seri Alam, 81750 Masai, Johor",
        "Postcode": 81750,
        "Coordinates": "1.4962035,103.8728633",
        "State": "Johor",
        "District": "Masai"
      }
    },
    {
      "type": "Feature",
      "geometry": {
        "type": "Point",
        "coordinates": [
          101.71913,
          3.15985
        ]
      },
      "properties": {
        "Name": "FAMILYMART LRT Ampang Park",
        "Address": "K3- Concourse Level, LRT Ampang Park Station, Kuala Lumpur",
        "Postcode": 50450,
        "Coordinates": "3.15985,101.71913",
        "State": "Wp Kuala Lumpur",
        "District": "Kuala Lumpur"
      }
    },
    {
      "type": "Feature",
      "geometry": {
        "type": "Point",
        "coordinates": [
          102.2740218,
          2.2463291
        ]
      },
      "properties": {
        "Name": "FAMILYMART Bukit Beruang",
        "Address": "658F-G, Jalan Delima, Taman Bukit Melaka, Hang Tuah Jaya, 75450 Ayer Keroh, Melaka",
        "Postcode": 75450,
        "Coordinates": "2.2463291,102.2740218",
        "State": "Melaka",
        "District": "Ayer Keroh"
      }
    },
    {
      "type": "Feature",
      "geometry": {
        "type": "Point",
        "coordinates": [
          101.6653741,
          3.152269
        ]
      },
      "properties": {
        "Name": "FAMILYMART KLSMC",
        "Address": "G-01A, Ground Floor, Wisma Perintis, 47, Jalan Dungun, Damansara Heights, 50490 Kuala Lumpur",
        "Postcode": 50490,
        "Coordinates": "3.152269,101.6653741",
        "State": "Wp Kuala Lumpur",
        "District": "Kuala Lumpur"
      }
    },
    {
      "type": "Feature",
      "geometry": {
        "type": "Point",
        "coordinates": [
          103.6705535,
          1.5286218
        ]
      },
      "properties": {
        "Name": "FAMILYMART Caltex Jalan Skudai",
        "Address": "GM 679, Lot 1283, Mukim Of Pulai, Tempat Batu 8, Jalan Skudai, 81300 Johor Bahru, Johor",
        "Postcode": 81300,
        "Coordinates": "1.5286218,103.6705535",
        "State": "Johor",
        "District": "Johor Bahru"
      }
    },
    {
      "type": "Feature",
      "geometry": {
        "type": "Point",
        "coordinates": [
          101.6782089,
          3.1277923
        ]
      },
      "properties": {
        "Name": "FAMILYMART Menara UOA Bangsar",
        "Address": "Unit 1-3A, 5, Jalan Bangsar Utama 1, Taman Bangsar, 59000 Kuala Lumpur",
        "Postcode": 59000,
        "Coordinates": "3.1277923,101.6782089",
        "State": "Wp Kuala Lumpur",
        "District": "Kuala Lumpur"
      }
    },
    {
      "type": "Feature",
      "geometry": {
        "type": "Point",
        "coordinates": [
          103.762422,
          1.4858456
        ]
      },
      "properties": {
        "Name": "FAMILYMART KSL City",
        "Address": "No LG-039, Lower Ground Floor, KSL CITY, 33, Jalan Seladang, Taman Abad, 80250 Johor Bahru, Johor",
        "Postcode": 80250,
        "Coordinates": "1.4858456,103.762422",
        "State": "Johor",
        "District": "Johor Bahru"
      }
    },
    {
      "type": "Feature",
      "geometry": {
        "type": "Point",
        "coordinates": [
          102.2518776,
          2.1897989
        ]
      },
      "properties": {
        "Name": "FAMILYMART Mahkota Parade",
        "Address": "Lot G11, Ground Floor, Mahkota Parade, No.1, Jalan Merdeka, 75000 Melaka",
        "Postcode": 75000,
        "Coordinates": "2.1897989,102.2518776",
        "State": "Melaka",
        "District": "Melaka"
      }
    },
    {
      "type": "Feature",
      "geometry": {
        "type": "Point",
        "coordinates": [
          101.4450395,
          3.1017478
        ]
      },
      "properties": {
        "Name": "FAMILYMART Petron Setia Impian",
        "Address": "No 2, Persiaran Setia Impian Bandar Setia Alam, Section U13, 40170 Shah Alam, Selangor",
        "Postcode": 40170,
        "Coordinates": "3.1017478,101.4450395",
        "State": "Selangor",
        "District": "Shah Alam"
      }
    },
    {
      "type": "Feature",
      "geometry": {
        "type": "Point",
        "coordinates": [
          103.7976316,
          1.553661
        ]
      },
      "properties": {
        "Name": "FAMILYMART Toppen",
        "Address": "G01, TOPPEN Shopping Centre, No.33, Jalan Harmonium, Taman Desa Tebrau, 81100 Johor Bahru, Johor",
        "Postcode": 81100,
        "Coordinates": "1.553661,103.7976316",
        "State": "Johor",
        "District": "Johor Bahru"
      }
    },
    {
      "type": "Feature",
      "geometry": {
        "type": "Point",
        "coordinates": [
          101.6873496,
          3.1328277
        ]
      },
      "properties": {
        "Name": "FAMILYMART Nu Sentral (Expansion)",
        "Address": "G39 & G40, Level Ground Floor, Nu Sentral Shopping Centre, Jalan Tun Sambanthan, Kuala Lumpur",
        "Postcode": 50470,
        "Coordinates": "3.1328277,101.6873496",
        "State": "Wp Kuala Lumpur",
        "District": "Kuala Lumpur"
      }
    },
    {
      "type": "Feature",
      "geometry": {
        "type": "Point",
        "coordinates": [
          103.6537589,
          1.5138963
        ]
      },
      "properties": {
        "Name": "FAMILYMART Taman Ungku Tun Aminah",
        "Address": "No.2, Jalan Pendekar 13, Taman Ungku Tun Aminah, 81300 Skudai, Johor",
        "Postcode": 81300,
        "Coordinates": "1.5138963,103.6537589",
        "State": "Johor",
        "District": "Johor Bahru"
      }
    },
    {
      "type": "Feature",
      "geometry": {
        "type": "Point",
        "coordinates": [
          101.4694512,
          2.9885167
        ]
      },
      "properties": {
        "Name": "FAMILYMART Caltex Bandar Puteri Klang",
        "Address": "No. M, Lot 133826, Lebuh Sanggul 1/KS7, Bandar Puteri, 41200 Klang, Selangor",
        "Postcode": 41200,
        "Coordinates": "2.9885167,101.4694512",
        "State": "Selangor",
        "District": "Klang"
      }
    },
    {
      "type": "Feature",
      "geometry": {
        "type": "Point",
        "coordinates": [
          103.6478418,
          1.6060675
        ]
      },
      "properties": {
        "Name": "FAMILYMART Senai Centrepoint",
        "Address": "No 32G, Jalan Terminal 5, 81400 Senai, Johor",
        "Postcode": 81400,
        "Coordinates": "1.6060675,103.6478418",
        "State": "Johor",
        "District": "Senai"
      }
    },
    {
      "type": "Feature",
      "geometry": {
        "type": "Point",
        "coordinates": [
          102.2305149,
          2.1991605
        ]
      },
      "properties": {
        "Name": "FAMILYMART Porto Historia (Expansion)",
        "Address": "No. 10, Jalan KLJ 8, Taman Kota Laksamana Jaya, 75200 Melaka",
        "Postcode": 75200,
        "Coordinates": "2.1991605,102.2305149",
        "State": "Melaka",
        "District": "Melaka"
      }
    },
    {
      "type": "Feature",
      "geometry": {
        "type": "Point",
        "coordinates": [
          101.6541978,
          2.9162609
        ]
      },
      "properties": {
        "Name": "FAMILYMART Prima Avenue, Cyberjaya",
        "Address": "Prima 4, Jalan Teknokrat 5, 63000 Cyberjaya",
        "Postcode": 63000,
        "Coordinates": "2.9162609,101.6541978",
        "State": "Selangor",
        "District": "Cyberjaya"
      }
    },
    {
      "type": "Feature",
      "geometry": {
        "type": "Point",
        "coordinates": [
          102.2606701,
          2.2381593
        ]
      },
      "properties": {
        "Name": "FAMILYMART Batu Berendam",
        "Address": "No. 36, Jalan Mutiara Melaka 2, Taman Mutiara, 75350 Batu Berendam, Melaka",
        "Postcode": 75350,
        "Coordinates": "2.2381593,102.2606701",
        "State": "Melaka",
        "District": "Melaka"
      }
    },
    {
      "type": "Feature",
      "geometry": {
        "type": "Point",
        "coordinates": [
          102.2446863,
          2.2144631
        ]
      },
      "properties": {
        "Name": "FAMILYMART Lagenda Melaka",
        "Address": "35, Jalan Lagenda 1, Taman 1 Lagenda  Melaka",
        "Postcode": 75400,
        "Coordinates": "2.2144631,102.2446863",
        "State": "Melaka",
        "District": "Melaka"
      }
    },
    {
      "type": "Feature",
      "geometry": {
        "type": "Point",
        "coordinates": [
          103.7540607,
          1.4857879
        ]
      },
      "properties": {
        "Name": "FAMILYMART Kebun Teh",
        "Address": "No. 20(GF), Jalan Kebun Teh 1, Pusat Perdagangan Kebun Teh, 80250 Johor Bahru, Johor",
        "Postcode": 80250,
        "Coordinates": "1.4857879,103.7540607",
        "State": "Johor",
        "District": "Johor Bahru"
      }
    },
    {
      "type": "Feature",
      "geometry": {
        "type": "Point",
        "coordinates": [
          102.2703715,
          2.2163858
        ]
      },
      "properties": {
        "Name": "FAMILYMART Bukit Baru",
        "Address": "19, Jalan PNBBU 1, Pusat Perniagaan Bukit Baru Utama, 75150 Bukit Baru, Melaka",
        "Postcode": 75150,
        "Coordinates": "2.2163858,102.2703715",
        "State": "Melaka",
        "District": "Melaka"
      }
    },
    {
      "type": "Feature",
      "geometry": {
        "type": "Point",
        "coordinates": [
          101.7938018,
          3.4239007
        ]
      },
      "properties": {
        "Name": "FAMILYMART Sky Avenue",
        "Address": "Lot No. T1-03 of Level G, SkyAvenue, Genting Highlands Resort, 69000 Genting Highlands, Pahang",
        "Postcode": 69000,
        "Coordinates": "3.4239007,101.7938018",
        "State": "Pahang",
        "District": "Genting Highlands"
      }
    },
    {
      "type": "Feature",
      "geometry": {
        "type": "Point",
        "coordinates": [
          101.8563308,
          2.4744956
        ]
      },
      "properties": {
        "Name": "FAMILYMART Sunggala Gateway",
        "Address": "No. 18-G, Block B, Jalan PDS 1, PD Sunggala Gateway, Teluk Kemang, 71050 Port Dickson, Negeri Sembilan",
        "Postcode": 71050,
        "Coordinates": "2.4744956,101.8563308",
        "State": "Negeri Sembilan",
        "District": "Si Rusa"
      }
    },
    {
      "type": "Feature",
      "geometry": {
        "type": "Point",
        "coordinates": [
          103.8000509,
          1.562605
        ]
      },
      "properties": {
        "Name": "FAMILYMART Taman Gaya",
        "Address": "No.102, Jalan Gaya 1, Taman Gaya, 81800 Ulu Tiram, Johor",
        "Postcode": 81800,
        "Coordinates": "1.562605,103.8000509",
        "State": "Johor",
        "District": "Ulu Tiram"
      }
    },
    {
      "type": "Feature",
      "geometry": {
        "type": "Point",
        "coordinates": [
          102.2223758,
          2.2527724
        ]
      },
      "properties": {
        "Name": "FAMILYMART Puncak Bertam",
        "Address": "2A, Jalan PB 1A, Taman Puncak Bertam, 75250 Melaka",
        "Postcode": 75250,
        "Coordinates": "2.2527724,102.2223758",
        "State": "Melaka",
        "District": "Melaka"
      }
    },
    {
      "type": "Feature",
      "geometry": {
        "type": "Point",
        "coordinates": [
          101.6895363,
          3.2054617
        ]
      },
      "properties": {
        "Name": "FAMILYMART One Maxim, Sentul",
        "Address": "G-3A One Maxim, No.1 Jalan Pelangi 2, 51000 Sentul, Kuala Lumpur",
        "Postcode": 51000,
        "Coordinates": "3.2054617,101.6895363",
        "State": "Wp Kuala Lumpur",
        "District": "Kuala Lumpur"
      }
    },
    {
      "type": "Feature",
      "geometry": {
        "type": "Point",
        "coordinates": [
          101.6866381,
          2.91877
        ]
      },
      "properties": {
        "Name": "FAMILYMART Menara Ikhlas, Putrajaya",
        "Address": "Ground Floor, Retail F&B 3, Menara Ikhlas, No. 17, Persiaran Perdana, Presint 3, 62100 Putrajaya",
        "Postcode": 62100,
        "Coordinates": "2.91877,101.6866381",
        "State": "Wp Putrajaya",
        "District": "Putrajaya"
      }
    },
    {
      "type": "Feature",
      "geometry": {
        "type": "Point",
        "coordinates": [
          102.2759631,
          2.2304278
        ]
      },
      "properties": {
        "Name": "FAMILYMART Melaka Sentral",
        "Address": "TZB14/TZB15, Zone B Terminal, Melaka Sentral, Jalan Tun Abdul Razak, Peringgit, 75300 Melaka",
        "Postcode": 75300,
        "Coordinates": "2.2304278,102.2759631",
        "State": "Melaka",
        "District": "Melaka"
      }
    },
    {
      "type": "Feature",
      "geometry": {
        "type": "Point",
        "coordinates": [
          102.2338044,
          2.2400746
        ]
      },
      "properties": {
        "Name": "FAMILYMART Malim Jaya",
        "Address": "No. 13, Jalan Rahmat 2, Taman Malim Jaya, 75250 Melaka",
        "Postcode": 75250,
        "Coordinates": "2.2400746,102.2338044",
        "State": "Melaka",
        "District": "Melaka"
      }
    },
    {
      "type": "Feature",
      "geometry": {
        "type": "Point",
        "coordinates": [
          101.7721143,
          2.9908839
        ]
      },
      "properties": {
        "Name": "FAMILYMART Seksyen 15, Bangi",
        "Address": "No.17 GF, Jalan 15/1A, Seksyen 15, 43650 Bandar Baru Bangi, Selangor",
        "Postcode": 43650,
        "Coordinates": "2.9908839,101.7721143",
        "State": "Selangor",
        "District": "Bandar Baru Bangi"
      }
    },
    {
      "type": "Feature",
      "geometry": {
        "type": "Point",
        "coordinates": [
          101.7106171,
          2.9395291
        ]
      },
      "properties": {
        "Name": "FAMILYMART Alamanda Shopping Centre",
        "Address": "Lot G03-G04, Alamanda Shopping Centre, Jalan Alamanda, Precinct 1, 62000 Putrajaya",
        "Postcode": 62000,
        "Coordinates": "2.9395291,101.7106171",
        "State": "Wp Putrajaya",
        "District": "Putrajaya"
      }
    },
    {
      "type": "Feature",
      "geometry": {
        "type": "Point",
        "coordinates": [
          102.2027234,
          2.2604032
        ]
      },
      "properties": {
        "Name": "FAMILYMART Caltex Lebuh Spa",
        "Address": "Part of Lot 11723, Mukim Tanjung Minyak, Daerah Melaka Tengah, Melaka",
        "Postcode": 75260,
        "Coordinates": "2.2604032,102.2027234",
        "State": "Melaka",
        "District": "Melaka"
      }
    },
    {
      "type": "Feature",
      "geometry": {
        "type": "Point",
        "coordinates": [
          103.9503708,
          1.4874688
        ]
      },
      "properties": {
        "Name": "FAMILYMART Petron Kota Masai",
        "Address": "Jalan Jambu Utama, Taman Pasir Putih, 81700 Pasir Gudang, Johor",
        "Postcode": 81700,
        "Coordinates": "1.4874688,103.9503708",
        "State": "Johor",
        "District": "Pasir Gudang"
      }
    },
    {
      "type": "Feature",
      "geometry": {
        "type": "Point",
        "coordinates": [
          101.7248453,
          3.127871400000001
        ]
      },
      "properties": {
        "Name": "FAMILYMART Sunway Velocity Medical Center",
        "Address": "L1,SunwayMedicalCentreVelocity, Lingkaran SV, Sunway Velocity, 55100 Kuala Lumpur",
        "Postcode": 55100,
        "Coordinates": "3.127871400000001,101.7248453",
        "State": "Wp Kuala Lumpur",
        "District": "Kuala Lumpur"
      }
    },
    {
      "type": "Feature",
      "geometry": {
        "type": "Point",
        "coordinates": [
          103.7674843,
          1.4843498
        ]
      },
      "properties": {
        "Name": "FAMILYMART Jalan Serampang, Pelangi",
        "Address": "No.21, Jalan Serampang, Taman Sri Tebrau, 80050 Johor Bahru",
        "Postcode": 80050,
        "Coordinates": "1.4843498,103.7674843",
        "State": "Johor",
        "District": "Johor Bahru"
      }
    },
    {
      "type": "Feature",
      "geometry": {
        "type": "Point",
        "coordinates": [
          101.6532342,
          3.1490859
        ]
      },
      "properties": {
        "Name": "FAMILYMART Damansara Heights",
        "Address": "No. 28-G, Jalan Medan Setia 2, Plaza Damansara, Bukit Damansara, 50490 Kuala Lumpur",
        "Postcode": 50490,
        "Coordinates": "3.1490859,101.6532342",
        "State": "Wp Kuala Lumpur",
        "District": "Kuala Lumpur"
      }
    },
    {
      "type": "Feature",
      "geometry": {
        "type": "Point",
        "coordinates": [
          101.6959612,
          3.0130103
        ]
      },
      "properties": {
        "Name": "FAMILYMART Olive Hill Business Park",
        "Address": "50-LG, Jalan BS 1/1, Pusat Perdagangan Olive Hill, Taman Bukit Serdang, Seksyen 1, 43300 Seri Kembangan, Selangor",
        "Postcode": 43300,
        "Coordinates": "3.0130103,101.6959612",
        "State": "Selangor",
        "District": "Seri Kembangan"
      }
    },
    {
      "type": "Feature",
      "geometry": {
        "type": "Point",
        "coordinates": [
          101.4338393,
          3.0406501
        ]
      },
      "properties": {
        "Name": "FAMILYMART Teluk Pulai",
        "Address": "No. 39, Ground Floor, Jalan Teluk Pulai, 41100 Klang, Selangor",
        "Postcode": 41100,
        "Coordinates": "3.0406501,101.4338393",
        "State": "Selangor",
        "District": "Klang"
      }
    },
    {
      "type": "Feature",
      "geometry": {
        "type": "Point",
        "coordinates": [
          101.807716,
          2.5554675
        ]
      },
      "properties": {
        "Name": "FAMILYMART Port Dickson",
        "Address": "No. 7, Ground Floor, Jalan Pusat Perniagaan Impian 1, Pusat Perniagaan Impian, 71009 Port Dickson, Negeri Sembilan",
        "Postcode": 71009,
        "Coordinates": "2.5554675,101.807716",
        "State": "Negeri Sembilan",
        "District": "Port Dickson"
      }
    },
    {
      "type": "Feature",
      "geometry": {
        "type": "Point",
        "coordinates": [
          101.710357,
          3.026786
        ]
      },
      "properties": {
        "Name": "FAMILYMART Caltex Jalan Besar (Seri Kembangan)",
        "Address": "Lot 49358, Jalan Besar, 43300 Seri Kembangan, Selangor",
        "Postcode": 43300,
        "Coordinates": "3.026786,101.710357",
        "State": "Selangor",
        "District": "Seri Kembangan"
      }
    },
    {
      "type": "Feature",
      "geometry": {
        "type": "Point",
        "coordinates": [
          102.9538761,
          1.8639839
        ]
      },
      "properties": {
        "Name": "FAMILYMART Old Street, Batu Pahat",
        "Address": "Old Street Commercial Centre, No. 22 (Ground Floor), Jalan Rotan Utama, Taman Sri Jaya, 83000 Batu Pahat, Johor",
        "Postcode": 83000,
        "Coordinates": "1.8639839,102.9538761",
        "State": "Johor",
        "District": "Batu Pahat"
      }
    },
    {
      "type": "Feature",
      "geometry": {
        "type": "Point",
        "coordinates": [
          103.7568275,
          1.5722185
        ]
      },
      "properties": {
        "Name": "FAMILYMART Taman Setia Indah",
        "Address": "No.2, Jalan Setia 3/2, Taman Setia Indah 81100 Johor Bahru, Johor",
        "Postcode": 81100,
        "Coordinates": "1.5722185,103.7568275",
        "State": "Johor",
        "District": "Johor Bahru"
      }
    },
    {
      "type": "Feature",
      "geometry": {
        "type": "Point",
        "coordinates": [
          103.6834109,
          1.5446924
        ]
      },
      "properties": {
        "Name": "FAMILYMART Caltex Taman Impian Emas",
        "Address": "Part of PTD 107072, Jalan Seri Impian 1, Taman Impian Emas, 81300 Skudai, Johor",
        "Postcode": 81300,
        "Coordinates": "1.5446924,103.6834109",
        "State": "Johor",
        "District": "Johor Bahru"
      }
    },
    {
      "type": "Feature",
      "geometry": {
        "type": "Point",
        "coordinates": [
          101.8939841,
          2.6915803
        ]
      },
      "properties": {
        "Name": "FAMILYMART Petron Rasah Kemayan",
        "Address": "PT9770, Persiaran Rasah Kemayan 1, Seremban 2, 70300 Seremban, Negeri Sembilan",
        "Postcode": 70300,
        "Coordinates": "2.6915803,101.8939841",
        "State": "Negeri Sembilan",
        "District": "Seremban"
      }
    },
    {
      "type": "Feature",
      "geometry": {
        "type": "Point",
        "coordinates": [
          101.58638,
          3.3070778
        ]
      },
      "properties": {
        "Name": "FAMILYMART Rawang",
        "Address": "No. A1-G, Jalan Rawang, Pusat Perniagaan R.E.E.F 2, 48000 Rawang, Selangor",
        "Postcode": 48000,
        "Coordinates": "3.3070778,101.58638",
        "State": "Selangor",
        "District": "Rawang"
      }
    },
    {
      "type": "Feature",
      "geometry": {
        "type": "Point",
        "coordinates": [
          102.5833442,
          2.0507928
        ]
      },
      "properties": {
        "Name": "FAMILYMART Jalan Pesta",
        "Address": "2 Jalan Pesta 1, Pusat Perdagangan Mega, Jalan Sakeh,84000 Muar",
        "Postcode": 84000,
        "Coordinates": "2.0507928,102.5833442",
        "State": "Johor",
        "District": "Muar"
      }
    },
    {
      "type": "Feature",
      "geometry": {
        "type": "Point",
        "coordinates": [
          101.7486201,
          3.1125743
        ]
      },
      "properties": {
        "Name": "FAMILYMART Caltex Setiawangsa",
        "Address": "12914, Jalan 37/56, Taman Setiawangsa, 54200 Kuala Lumpur, Selangor",
        "Postcode": 54200,
        "Coordinates": "3.1125743,101.7486201",
        "State": "Wp Kuala Lumpur",
        "District": "Kuala Lumpur"
      }
    },
    {
      "type": "Feature",
      "geometry": {
        "type": "Point",
        "coordinates": [
          103.3996165,
          1.4801527
        ]
      },
      "properties": {
        "Name": "FAMILYMART Kota Emas",
        "Address": "No. 50-G, Jalan Emas 2, Pusat Perniagaan Kota Emas, 82000 Pontian, Johor",
        "Postcode": 82000,
        "Coordinates": "1.4801527,103.3996165",
        "State": "Johor",
        "District": "Pontian"
      }
    },
    {
      "type": "Feature",
      "geometry": {
        "type": "Point",
        "coordinates": [
          103.3184849,
          2.0374656
        ]
      },
      "properties": {
        "Name": "FAMILYMART Pusat Perniagaan Haji Manan, Kluang",
        "Address": "108, Jalan Haji Manan, Kampung Masjid Lama, 86000 Kluang, Johor",
        "Postcode": 86000,
        "Coordinates": "2.0374656,103.3184849",
        "State": "Johor",
        "District": "Kluang"
      }
    },
    {
      "type": "Feature",
      "geometry": {
        "type": "Point",
        "coordinates": [
          102.2254332,
          2.7361183
        ]
      },
      "properties": {
        "Name": "FAMILYMART Kuala Pilah",
        "Address": "PT 3173, Taman Melang Shoplot, Jalan Melang, 72000 Kuala Pilah, Negeri Sembilan",
        "Postcode": 72000,
        "Coordinates": "2.7361183,102.2254332",
        "State": "Negeri Sembilan",
        "District": "Kuala Pilah"
      }
    },
    {
      "type": "Feature",
      "geometry": {
        "type": "Point",
        "coordinates": [
          103.0741501,
          1.848631
        ]
      },
      "properties": {
        "Name": "FAMILYMART Parit Raja",
        "Address": "No 22, Jalan Universiti 1, Taman Universiti Parit Raja, Batu Pahat",
        "Postcode": 86400,
        "Coordinates": "1.848631,103.0741501",
        "State": "Selangor ",
        "District": "Parit Raja"
      }
    },
    {
      "type": "Feature",
      "geometry": {
        "type": "Point",
        "coordinates": [
          100.3292123,
          5.3978493
        ]
      },
      "properties": {
        "Name": "FAMILYMART Karpal Singh Drive",
        "Address": "No.29C-01-19 & No. 29C-01-20, Maritime, Persiaran Karpal Singh, 11600 Jelutong, Penang",
        "Postcode": 11600,
        "Coordinates": "5.3978493,100.3292123",
        "State": "Pulau Pinang",
        "District": "Jelutong"
      }
    },
    {
      "type": "Feature",
      "geometry": {
        "type": "Point",
        "coordinates": [
          101.3970858,
          3.0869554
        ]
      },
      "properties": {
        "Name": "FAMILYMART Caltex Jalan Kapar",
        "Address": "A portion of Lot 2740, Jalan Kapar Batu 5, 42100 Klang, Selangor",
        "Postcode": 42100,
        "Coordinates": "3.0869554,101.3970858",
        "State": "Selangor",
        "District": "Klang"
      }
    },
    {
      "type": "Feature",
      "geometry": {
        "type": "Point",
        "coordinates": [
          101.4662574,
          3.125615
        ]
      },
      "properties": {
        "Name": "FAMILYMART Caltex Setia Alam",
        "Address": "No.2, Jala Setia Utama AR U13/AR, Setia Alam, Seksyen U13, 40170 Shah Alam, Selangor",
        "Postcode": 40170,
        "Coordinates": "3.125615,101.4662574",
        "State": "Selangor",
        "District": "Shah Alam"
      }
    },
    {
      "type": "Feature",
      "geometry": {
        "type": "Point",
        "coordinates": [
          100.4313922,
          5.3377823
        ]
      },
      "properties": {
        "Name": "FAMILYMART Auto City",
        "Address": "Juru Interchange, Auto-City, No. 1824-G1 & 1823-G3, Jalan Perusahaan, 13600 Prai, Penang",
        "Postcode": 13600,
        "Coordinates": "5.3377823,100.4313922",
        "State": "Pulau Pinang",
        "District": "Perai"
      }
    },
    {
      "type": "Feature",
      "geometry": {
        "type": "Point",
        "coordinates": [
          100.3109549,
          5.432387900000001
        ]
      },
      "properties": {
        "Name": "FAMILYMART Jalan Burma, Penang",
        "Address": "No.306-F, Jalan Burma,\n10350 Penang",
        "Postcode": 10350,
        "Coordinates": "5.432387900000001,100.3109549",
        "State": "Pulau Pinang",
        "District": "Pulau Pinang"
      }
    },
    {
      "type": "Feature",
      "geometry": {
        "type": "Point",
        "coordinates": [
          103.6851193,
          1.516239
        ]
      },
      "properties": {
        "Name": "FAMILYMART Paradigm JB",
        "Address": "Lot GF-18,19,20,21&22, Ground Floor, Paradigm Mall, Johor Bahru, Johor",
        "Postcode": 81200,
        "Coordinates": "1.516239,103.6851193",
        "State": "Johor ",
        "District": "Johor Bahru"
      }
    },
    {
      "type": "Feature",
      "geometry": {
        "type": "Point",
        "coordinates": [
          100.3845292,
          5.4299288
        ]
      },
      "properties": {
        "Name": "FAMILYMART Caltex Raja Uda",
        "Address": "Part of Lot 2219, Section 1, Jalan Raja Uda, Taman Tanjung Aman, 12300 Butterworth, Pulau Pinang",
        "Postcode": 12300,
        "Coordinates": "5.4299288,100.3845292",
        "State": "Pulau Pinang",
        "District": "Butterworth"
      }
    },
    {
      "type": "Feature",
      "geometry": {
        "type": "Point",
        "coordinates": [
          103.5253848,
          1.4957436
        ]
      },
      "properties": {
        "Name": "FAMILYMART Pekan Sentral, Pekan Nanas",
        "Address": "No 111, Jalan Industri 8, Taman Perindustrian Pekan Nenas, 81500 Pontian, Johor",
        "Postcode": 81500,
        "Coordinates": "1.4957436,103.5253848",
        "State": "Johor",
        "District": "Pekan Nenas"
      }
    },
    {
      "type": "Feature",
      "geometry": {
        "type": "Point",
        "coordinates": [
          100.2834013,
          5.3914133
        ]
      },
      "properties": {
        "Name": "FAMILYMART Farlim",
        "Address": "16E, Farlim Business Center, Lebuhraya Thean Teik, Bandar Baru Air Itam, 11500 Pulau Pinang",
        "Postcode": 11500,
        "Coordinates": "5.3914133,100.2834013",
        "State": "Pulau Pinang",
        "District": "Ayer Itam"
      }
    },
    {
      "type": "Feature",
      "geometry": {
        "type": "Point",
        "coordinates": [
          101.199753,
          3.4972926
        ]
      },
      "properties": {
        "Name": "FAMILYMART Tanjung Karang",
        "Address": "No 9, PB1/1 Pusat Bandar Tanjung Karang, 45500 Tanjung Karang, Selangor",
        "Postcode": 45500,
        "Coordinates": "3.4972926,101.199753",
        "State": "Selangor",
        "District": "Tanjong Karang"
      }
    },
    {
      "type": "Feature",
      "geometry": {
        "type": "Point",
        "coordinates": [
          100.4129362,
          5.422931699999999
        ]
      },
      "properties": {
        "Name": "FAMILYMART Caltex Sg. Dua",
        "Address": "Caltex Sg Dua North Bound, PMT 10359, KM 132.5, Lebuhraya Utara Selatan, 13600 Permatang Pauh, Pulau Pinang",
        "Postcode": 13600,
        "Coordinates": "5.422931699999999,100.4129362",
        "State": "Pulau Pinang",
        "District": "Perai"
      }
    },
    {
      "type": "Feature",
      "geometry": {
        "type": "Point",
        "coordinates": [
          101.7393,
          3.045922
        ]
      },
      "properties": {
        "Name": "FAMILYMART Bandar Damai Perdana",
        "Address": "No. 18, Jalan Damai Perdana 1/9a, Bandar Damai Perdana, 43200 Cheras, Selangor",
        "Postcode": 43200,
        "Coordinates": "3.045922,101.7393",
        "State": "Selangor",
        "District": "Cheras"
      }
    },
    {
      "type": "Feature",
      "geometry": {
        "type": "Point",
        "coordinates": [
          101.7810077,
          3.0702141
        ]
      },
      "properties": {
        "Name": "FAMILYMART Petron Hulu Langat",
        "Address": "2, Jalan Hulu Langat Jaya 1, Taman Hulu Langat Jaya, 43200 Cheras, Selangor",
        "Postcode": 43200,
        "Coordinates": "3.0702141,101.7810077",
        "State": "Selangor",
        "District": "Cheras"
      }
    },
    {
      "type": "Feature",
      "geometry": {
        "type": "Point",
        "coordinates": [
          101.8387359,
          2.9580434
        ]
      },
      "properties": {
        "Name": "FAMILYMART Vista Valley, Semenyih",
        "Address": "No 20-G, Jalan Vista Valley 3, Semenyih Vista Valley, 43500 Semenyih, Selangor",
        "Postcode": 43500,
        "Coordinates": "2.9580434,101.8387359",
        "State": "Selangor",
        "District": "Semenyih"
      }
    },
    {
      "type": "Feature",
      "geometry": {
        "type": "Point",
        "coordinates": [
          100.4336764,
          5.3418376
        ]
      },
      "properties": {
        "Name": "FAMILYMART Icon City",
        "Address": "No. 3(Ground & Mezzanine Floor), Jalan Icon City, Bukit Tengah, 14000 Bukit Mertajam, Pulau Pinang",
        "Postcode": 14000,
        "Coordinates": "5.3418376,100.4336764",
        "State": "Pulau Pinang",
        "District": "Bukit Mertajam"
      }
    },
    {
      "type": "Feature",
      "geometry": {
        "type": "Point",
        "coordinates": [
          101.7368822,
          3.1470036
        ]
      },
      "properties": {
        "Name": "FAMILYMART Desa Pandan",
        "Address": "No. 4, Jalan 1/76D, Desa Pandan, 55100 Kuala Lumpur",
        "Postcode": 55100,
        "Coordinates": "3.1470036,101.7368822",
        "State": "Wp Kuala Lumpur",
        "District": "Kuala Lumpur"
      }
    },
    {
      "type": "Feature",
      "geometry": {
        "type": "Point",
        "coordinates": [
          103.0686512,
          2.0057756
        ]
      },
      "properties": {
        "Name": "FAMILYMART Yong Peng",
        "Address": "No.2 (Tingkat Bawah), Jalan Cahaya Baru, Taman Sembrong, 83700 Yong Peng, Johor",
        "Postcode": 83700,
        "Coordinates": "2.0057756,103.0686512",
        "State": "Johor",
        "District": "Yong Peng"
      }
    },
    {
      "type": "Feature",
      "geometry": {
        "type": "Point",
        "coordinates": [
          102.9326191,
          1.8680352
        ]
      },
      "properties": {
        "Name": "FAMILYMART D'Garden, Batu Pahat",
        "Address": "PTD 61251GF, Jalan Desa Botani 1, 83000 Batu Pahat, Johor",
        "Postcode": 83000,
        "Coordinates": "1.8680352,102.9326191",
        "State": "Johor",
        "District": "Batu Pahat"
      }
    },
    {
      "type": "Feature",
      "geometry": {
        "type": "Point",
        "coordinates": [
          101.5783104,
          2.952376
        ]
      },
      "properties": {
        "Name": "FAMILYMART Bandar Saujana Putra",
        "Address": "41-G, Jalan SP1/1, Bandar Saujana Putra, 42610 Jenjarom, Selangor",
        "Postcode": 42610,
        "Coordinates": "2.952376,101.5783104",
        "State": "Selangor",
        "District": "Jenjarom"
      }
    },
    {
      "type": "Feature",
      "geometry": {
        "type": "Point",
        "coordinates": [
          100.9848666,
          3.6732249
        ]
      },
      "properties": {
        "Name": "FAMILYMART Sg Besar",
        "Address": "No.2, Jalan Bunga Loceng Kuning, Sungai Besar Sentral, 45300 Sungai Besar, Selangor",
        "Postcode": 45300,
        "Coordinates": "3.6732249,100.9848666",
        "State": "Selangor",
        "District": "Sungai Besar"
      }
    },
    {
      "type": "Feature",
      "geometry": {
        "type": "Point",
        "coordinates": [
          103.6792995,
          1.4760497
        ]
      },
      "properties": {
        "Name": "FAMILYMART Caltex Taman Perling",
        "Address": "PTD 30504, Jalan Layang, Taman Perling, 81200 Johor Bahru, Johor",
        "Postcode": 30504,
        "Coordinates": "1.4760497,103.6792995",
        "State": "Perak",
        "District": "Ipoh"
      }
    },
    {
      "type": "Feature",
      "geometry": {
        "type": "Point",
        "coordinates": [
          101.1044025,
          3.5023633
        ]
      },
      "properties": {
        "Name": "FAMILYMART Sekinchan",
        "Address": "No. 12, Jalan Indah 2/1, Taman Indah 2, 45400 Sekinchan, Selangor",
        "Postcode": 45400,
        "Coordinates": "3.5023633,101.1044025",
        "State": "Selangor",
        "District": "Sekinchan"
      }
    },
    {
      "type": "Feature",
      "geometry": {
        "type": "Point",
        "coordinates": [
          100.3356597,
          5.4188215
        ]
      },
      "properties": {
        "Name": "FAMILYMART Chulia Street",
        "Address": "Ground Floor, Kim Mansion Building, 332, Chulia Street, 10200 Penang",
        "Postcode": 10200,
        "Coordinates": "5.4188215,100.3356597",
        "State": "Pulau Pinang",
        "District": "Pulau Pinang"
      }
    },
    {
      "type": "Feature",
      "geometry": {
        "type": "Point",
        "coordinates": [
          102.1162641,
          2.3515438
        ]
      },
      "properties": {
        "Name": "FAMILYMART Masjid Tanah",
        "Address": "SU1463, Jalan Masjid Tanah Ria Utama, Taman Masjid Tanah Ria, 78300 Masjid Tanah, Melaka",
        "Postcode": 78300,
        "Coordinates": "2.3515438,102.1162641",
        "State": "Melaka",
        "District": "Masjid Tanah"
      }
    },
    {
      "type": "Feature",
      "geometry": {
        "type": "Point",
        "coordinates": [
          100.3148384,
          5.3995706
        ]
      },
      "properties": {
        "Name": "FAMILYMART Jalan Perak",
        "Address": "338-D (Ground Floor), Jalan Perak, Taman Desa Green, 11600 Pulau Pinang",
        "Postcode": 11600,
        "Coordinates": "5.3995706,100.3148384",
        "State": "Pulau Pinang",
        "District": "Jelutong"
      }
    },
    {
      "type": "Feature",
      "geometry": {
        "type": "Point",
        "coordinates": [
          101.7424458,
          3.09022
        ]
      },
      "properties": {
        "Name": "FAMILYMART Taman Segar",
        "Address": "No 55, Jalan Manis 4, Taman Segar, 56100 Kuala Lumpur, Wilayah Persekutuan Kuala Lumpur",
        "Postcode": 56100,
        "Coordinates": "3.09022,101.7424458",
        "State": "Wp Kuala Lumpur",
        "District": "Kuala Lumpur"
      }
    },
    {
      "type": "Feature",
      "geometry": {
        "type": "Point",
        "coordinates": [
          100.4211699,
          5.358440799999999
        ]
      },
      "properties": {
        "Name": "FAMILYMART Caltex Setia Sentral",
        "Address": "No.1, Jalan Setia Sentral, Pusat Perniagaan Setia Sentral, 14000 Bukit Mertajam, Penang",
        "Postcode": 14000,
        "Coordinates": "5.358440799999999,100.4211699",
        "State": "Pulau Pinang",
        "District": "Bukit Mertajam"
      }
    },
    {
      "type": "Feature",
      "geometry": {
        "type": "Point",
        "coordinates": [
          102.2307329,
          2.4640333
        ]
      },
      "properties": {
        "Name": "FAMILYMART Tampin",
        "Address": "PS2, Jalan Besar, Pulau Sebang, 78000 Alor Gajah, Malacca",
        "Postcode": 78000,
        "Coordinates": "2.4640333,102.2307329",
        "State": "Melaka",
        "District": "Alor Gajah"
      }
    },
    {
      "type": "Feature",
      "geometry": {
        "type": "Point",
        "coordinates": [
          102.5730619,
          2.667298
        ]
      },
      "properties": {
        "Name": "FAMILYMART Gemas",
        "Address": "PT 4617 Bawah, Jalan Pekan Gemas, Pekan Gemas, 73400 Gemas, Negeri Sembilan",
        "Postcode": 73400,
        "Coordinates": "2.667298,102.5730619",
        "State": "Negeri Sembilan",
        "District": "Gemas"
      }
    },
    {
      "type": "Feature",
      "geometry": {
        "type": "Point",
        "coordinates": [
          100.4500936,
          5.3516178
        ]
      },
      "properties": {
        "Name": "FAMILYMART Caltex Jalan Song Ban Kheng",
        "Address": "Lot 2551, Mukim, 10, Jalan Song Ban Kheng, 14000, Pulau Pinang",
        "Postcode": 14000,
        "Coordinates": "5.3516178,100.4500936",
        "State": "Pulau Pinang",
        "District": "Bukit Mertajam"
      }
    },
    {
      "type": "Feature",
      "geometry": {
        "type": "Point",
        "coordinates": [
          101.5172183,
          2.9610008
        ]
      },
      "properties": {
        "Name": "FAMILYMART Jalan Kebun",
        "Address": "No.25, Jalan Kebun Nanas 7A/KS8, 41200 Klang, Selangor",
        "Postcode": 41200,
        "Coordinates": "2.9610008,101.5172183",
        "State": "Selangor",
        "District": "Klang"
      }
    },
    {
      "type": "Feature",
      "geometry": {
        "type": "Point",
        "coordinates": [
          102.822582,
          2.5146954
        ]
      },
      "properties": {
        "Name": "FAMILYMART Sri Utama, Segamat",
        "Address": "Pusat Komersial Sri Utama, NO.5 - 7, Jalan Utama 3/2, Taman Utama, 85000 Segamat, Johor",
        "Postcode": 85000,
        "Coordinates": "2.5146954,102.822582",
        "State": "Johor",
        "District": "Segamat"
      }
    },
    {
      "type": "Feature",
      "geometry": {
        "type": "Point",
        "coordinates": [
          102.4306524,
          2.3108792
        ]
      },
      "properties": {
        "Name": "FAMILYMART Jasin",
        "Address": "JA 9954, Bandar Baru Jasin 3, 77200 Malacca",
        "Postcode": 77200,
        "Coordinates": "2.3108792,102.4306524",
        "State": "Melaka",
        "District": "Bemban"
      }
    },
    {
      "type": "Feature",
      "geometry": {
        "type": "Point",
        "coordinates": [
          101.5601014,
          3.4041135
        ]
      },
      "properties": {
        "Name": "FAMILYMART Bukit Sentosa, Rawang",
        "Address": "17-G, Seksyen BS1, Jalan Orkid 1F/2, Bukit Sentosa, 48300 Rawang, Selangor",
        "Postcode": 48300,
        "Coordinates": "3.4041135,101.5601014",
        "State": "Selangor",
        "District": "Rawang"
      }
    },
    {
      "type": "Feature",
      "geometry": {
        "type": "Point",
        "coordinates": [
          102.6562283,
          2.0412999
        ]
      },
      "properties": {
        "Name": "FAMILYMART Bukit Bakri",
        "Address": "No 3, Jalan Sinar Bakri 2, Pusat Perniagaan Sinar Bakri 84000 Muar, Johor",
        "Postcode": 84000,
        "Coordinates": "2.0412999,102.6562283",
        "State": "Johor",
        "District": "Muar"
      }
    },
    {
      "type": "Feature",
      "geometry": {
        "type": "Point",
        "coordinates": [
          101.6962898,
          3.082905
        ]
      },
      "properties": {
        "Name": "FAMILYMART Caltex Salak South",
        "Address": "A portion of Lot 166, Salak South Garden, 57100 Kuala Lumpur",
        "Postcode": 57100,
        "Coordinates": "3.082905,101.6962898",
        "State": "Wp Kuala Lumpur",
        "District": "Kuala Lumpur"
      }
    },
    {
      "type": "Feature",
      "geometry": {
        "type": "Point",
        "coordinates": [
          101.0234828,
          4.0204747
        ]
      },
      "properties": {
        "Name": "FAMILYMART Teluk Intan",
        "Address": "No.1B, Ground Floor, Laman Intan, Bandar Baru Teluk Intan, Jalan Changkat Jong, 36000 Perak",
        "Postcode": 36000,
        "Coordinates": "4.0204747,101.0234828",
        "State": "Perak",
        "District": "Teluk Intan"
      }
    },
    {
      "type": "Feature",
      "geometry": {
        "type": "Point",
        "coordinates": [
          101.5162801,
          3.06843
        ]
      },
      "properties": {
        "Name": "FAMILYMART Prima Saujana, Kajang",
        "Address": "A-G-8, Jalan Prima Saujana 2, 1A, Seksyen 2, Taman Prima Saujana, 43000 Kajang, Selangor",
        "Postcode": 43000,
        "Coordinates": "3.06843,101.5162801",
        "State": "Selangor",
        "District": "Kajang"
      }
    },
    {
      "type": "Feature",
      "geometry": {
        "type": "Point",
        "coordinates": [
          102.8524692,
          2.4932128
        ]
      },
      "properties": {
        "Name": "FAMILYMART Caltex Segamat Baru",
        "Address": "A portion of No. 1-1A, Jalan Nagasari, Bandar Segamat Baru, 85000 Segamat, Johor",
        "Postcode": 85000,
        "Coordinates": "2.4932128,102.8524692",
        "State": "Johor",
        "District": "Segamat"
      }
    },
    {
      "type": "Feature",
      "geometry": {
        "type": "Point",
        "coordinates": [
          102.3952351,
          2.8100213
        ]
      },
      "properties": {
        "Name": "FAMILYMART Bahau",
        "Address": "No. 1, Jalan Kiara 1, Pusat Perniagaan Kiara, 72100 Bahau, Negeri Sembilan",
        "Postcode": 72100,
        "Coordinates": "2.8100213,102.3952351",
        "State": "Negeri Sembilan",
        "District": "Bahau"
      }
    },
    {
      "type": "Feature",
      "geometry": {
        "type": "Point",
        "coordinates": [
          101.0963634,
          4.5993756
        ]
      },
      "properties": {
        "Name": "FAMILYMART Greentown, Ipoh",
        "Address": "No. 4 (Ground Floor), Persiaran Greentown 10, Greentown Business Centre, 30450 Ipoh, Perak",
        "Postcode": 30450,
        "Coordinates": "4.5993756,101.0963634",
        "State": "Perak",
        "District": "Ipoh"
      }
    },
    {
      "type": "Feature",
      "geometry": {
        "type": "Point",
        "coordinates": [
          102.5366292,
          2.262259100000001
        ]
      },
      "properties": {
        "Name": "FAMILYMART Tangkak",
        "Address": "LC 171, Jalan Muar, Kampung Tanjong Batu 15, 84900 Tangkak, Johor",
        "Postcode": 84900,
        "Coordinates": "2.262259100000001,102.5366292",
        "State": "Johor",
        "District": "Tangkak"
      }
    },
    {
      "type": "Feature",
      "geometry": {
        "type": "Point",
        "coordinates": [
          101.5192484,
          2.8179297
        ]
      },
      "properties": {
        "Name": "FAMILYMART Caltex Taman Banting Baru",
        "Address": "Lot 2352, Jalan Sultan Abdul Samad, Taman Banting Baru, 42700 Banting, Kuala Langat, Selangor",
        "Postcode": 42700,
        "Coordinates": "2.8179297,101.5192484",
        "State": "Selangor",
        "District": "Banting"
      }
    },
    {
      "type": "Feature",
      "geometry": {
        "type": "Point",
        "coordinates": [
          102.4320607,
          2.1667789
        ]
      },
      "properties": {
        "Name": "FAMILYMART Merlimau",
        "Address": "JC 19, Jalan BMU 1, Bandar Baru Merlimau Utara,77300 Merlimau, Melaka",
        "Postcode": 77300,
        "Coordinates": "2.1667789,102.4320607",
        "State": "Melaka",
        "District": "Merlimau"
      }
    },
    {
      "type": "Feature",
      "geometry": {
        "type": "Point",
        "coordinates": [
          101.9018859,
          3.5388664
        ]
      },
      "properties": {
        "Name": "FAMILYMART Bentong",
        "Address": "P11,  Jalan MG1, Pusat Perniagaan Mutiara Gemilang,28700 Bentong, Pahang",
        "Postcode": 28700,
        "Coordinates": "3.5388664,101.9018859",
        "State": "Pahang",
        "District": "Bentong"
      }
    },
    {
      "type": "Feature",
      "geometry": {
        "type": "Point",
        "coordinates": [
          101.0706004,
          4.6585079
        ]
      },
      "properties": {
        "Name": "FAMILYMART Caltex Taman Meru, Jelapang",
        "Address": "Jln Jelapang, 30020 Ipoh, Perak",
        "Postcode": 30020,
        "Coordinates": "4.6585079,101.0706004",
        "State": "Perak",
        "District": "Ipoh"
      }
    },
    {
      "type": "Feature",
      "geometry": {
        "type": "Point",
        "coordinates": [
          100.2661972,
          5.300138899999999
        ]
      },
      "properties": {
        "Name": "FAMILYMART Solaria Square, Bayan Lepas",
        "Address": "2-G-3A, Solaria Square, Jalan Tun Dr. Awang, 11900 Bayan Lepas, Pulau Pinang",
        "Postcode": 11900,
        "Coordinates": "5.300138899999999,100.2661972",
        "State": "Pulau Pinang",
        "District": "Bayan Lepas"
      }
    },
    {
      "type": "Feature",
      "geometry": {
        "type": "Point",
        "coordinates": [
          101.6640231,
          3.4525048
        ]
      },
      "properties": {
        "Name": "FAMILYMART Caltex Batang Kali",
        "Address": "Part of Caltex Batang Kali, PT9610, Jalan Batang Kali, Seksyen 5 Bandar Baru Batang Kali, 44300 Batang Kali, Selangor",
        "Postcode": 44300,
        "Coordinates": "3.4525048,101.6640231",
        "State": "Selangor",
        "District": "Batang Kali"
      }
    },
    {
      "type": "Feature",
      "geometry": {
        "type": "Point",
        "coordinates": [
          101.0750511,
          4.5527176
        ]
      },
      "properties": {
        "Name": "FAMILYMART Manhattan Business Centre, Station 18",
        "Address": "Jalan Pengkalan Putra 1, Kampung Paya, 31650 Ipoh, Perak",
        "Postcode": 31650,
        "Coordinates": "4.5527176,101.0750511",
        "State": "Perak",
        "District": "Ipoh"
      }
    },
    {
      "type": "Feature",
      "geometry": {
        "type": "Point",
        "coordinates": [
          103.5835809,
          1.4779027
        ]
      },
      "properties": {
        "Name": "FAMILYMART Petron Taman Prima",
        "Address": "LOT 202, Susur GP Prima, Taman GP Prima, 81550 Gelang Patah, Johor",
        "Postcode": 81550,
        "Coordinates": "1.4779027,103.5835809",
        "State": "Johor",
        "District": "Gelang Patah"
      }
    },
    {
      "type": "Feature",
      "geometry": {
        "type": "Point",
        "coordinates": [
          102.9468868,
          1.8373231
        ]
      },
      "properties": {
        "Name": "FAMILYMART Petron Tanjung Labuh",
        "Address": "Lot 4459, BT 2, Jalan Tanjung Labuh, 83000 Batu Pahat, Johor",
        "Postcode": 83000,
        "Coordinates": "1.8373231,102.9468868",
        "State": "Johor",
        "District": "Batu Pahat"
      }
    },
    {
      "type": "Feature",
      "geometry": {
        "type": "Point",
        "coordinates": [
          102.1402285,
          2.2904842
        ]
      },
      "properties": {
        "Name": "FAMILYMART Sg Udang",
        "Address": "No 5, Jalan Kerambit 1, Bandar Baru Sungai Udang, 76300 Melaka",
        "Postcode": 76300,
        "Coordinates": "2.2904842,102.1402285",
        "State": "Melaka",
        "District": "Sungai Udang"
      }
    },
    {
      "type": "Feature",
      "geometry": {
        "type": "Point",
        "coordinates": [
          101.3885071,
          4.49105
        ]
      },
      "properties": {
        "Name": "FAMILYMART Cameron Centrum",
        "Address": "C-G-43, Presint 1, Cameron Centrum, 39100 Brinchang, Cameron Highlands, Pahang",
        "Postcode": 39100,
        "Coordinates": "4.49105,101.3885071",
        "State": "Pahang",
        "District": "Brinchang"
      }
    },
    {
      "type": "Feature",
      "geometry": {
        "type": "Point",
        "coordinates": [
          101.3766065,
          4.4706867
        ]
      },
      "properties": {
        "Name": "FAMILYMART Tanah Rata",
        "Address": "41, Jalan Besar, Tanah Rata, 39000 Tanah Rata, Pahang",
        "Postcode": 39000,
        "Coordinates": "4.4706867,101.3766065",
        "State": "Pahang",
        "District": "Tanah Rata"
      }
    },
    {
      "type": "Feature",
      "geometry": {
        "type": "Point",
        "coordinates": [
          100.308606,
          5.338598999999999
        ]
      },
      "properties": {
        "Name": "FAMILYMART Summerton",
        "Address": "110-01-18, Persiaran Bayan Indah, 11900 Bayan Lepas, Pulau Pinang",
        "Postcode": 11900,
        "Coordinates": "5.338598999999999,100.308606",
        "State": "Pulau Pinang",
        "District": "Bayan Lepas"
      }
    },
    {
      "type": "Feature",
      "geometry": {
        "type": "Point",
        "coordinates": [
          101.1165832,
          4.6159422
        ]
      },
      "properties": {
        "Name": "FAMILYMART Bond Square",
        "Address": "No.19 & 19A, Jalan Niaga Simee 1, Pusat Perniagaan Simee, 31400 Ipoh, Perak",
        "Postcode": 31400,
        "Coordinates": "4.6159422,101.1165832",
        "State": "Perak",
        "District": "Ipoh"
      }
    },
    {
      "type": "Feature",
      "geometry": {
        "type": "Point",
        "coordinates": [
          100.2186817,
          5.3722699
        ]
      },
      "properties": {
        "Name": "FAMILYMART Botanica CT Centre, Balik Pulau",
        "Address": "Plot 14 & 15, Botanica CT Centre, 11000 Balik Pulau, Pulau Pinang",
        "Postcode": 11000,
        "Coordinates": "5.3722699,100.2186817",
        "State": "Pulau Pinang",
        "District": "Balik Pulau"
      }
    },
    {
      "type": "Feature",
      "geometry": {
        "type": "Point",
        "coordinates": [
          102.2160609,
          2.38425
        ]
      },
      "properties": {
        "Name": "FAMILYMART Kg Jelatang, Alor Gajah",
        "Address": "No.17, 1, Jalan Perniagaan Jelatang 1, Pusat Perniagaan Jelatang, 78000 Alor Gajah, Melaka",
        "Postcode": 78000,
        "Coordinates": "2.38425,102.2160609",
        "State": "Melaka",
        "District": "Alor Gajah"
      }
    },
    {
      "type": "Feature",
      "geometry": {
        "type": "Point",
        "coordinates": [
          101.9865197,
          2.7044282
        ]
      },
      "properties": {
        "Name": "FAMILYMART Senawang",
        "Address": "No.160-G, Jalan Taman Komersial Senawang 1, Taman Komersial Senawang, 70450 Seremban, Negeri Sembilan",
        "Postcode": 70450,
        "Coordinates": "2.7044282,101.9865197",
        "State": "Negeri Sembilan",
        "District": "Seremban"
      }
    },
    {
      "type": "Feature",
      "geometry": {
        "type": "Point",
        "coordinates": [
          102.1840461,
          2.2212444
        ]
      },
      "properties": {
        "Name": "FAMILYMART Klebang",
        "Address": "20, Jalan Nirwana 2, Taman Nirwana, 75200 Tanjung Kling, Melaka",
        "Postcode": 75200,
        "Coordinates": "2.2212444,102.1840461",
        "State": "Melaka",
        "District": "Melaka"
      }
    },
    {
      "type": "Feature",
      "geometry": {
        "type": "Point",
        "coordinates": [
          103.9226389,
          1.509184
        ]
      },
      "properties": {
        "Name": "FAMILYMART Petron Taman Cahaya Masai",
        "Address": "Part of Lot 72090, Taman Cahaya Masai, 81700 Pasir Gudang, Johor",
        "Postcode": 81700,
        "Coordinates": "1.509184,103.9226389",
        "State": "Johor",
        "District": "Pasir Gudang"
      }
    },
    {
      "type": "Feature",
      "geometry": {
        "type": "Point",
        "coordinates": [
          101.1218623,
          4.6254267
        ]
      },
      "properties": {
        "Name": "FAMILYMART Bercham",
        "Address": "Jalan Bercham, Taman Sri Kurau, 31400 Ipoh, Perak",
        "Postcode": 31400,
        "Coordinates": "4.6254267,101.1218623",
        "State": "Perak",
        "District": "Ipoh"
      }
    },
    {
      "type": "Feature",
      "geometry": {
        "type": "Point",
        "coordinates": [
          100.2991828,
          5.3519079
        ]
      },
      "properties": {
        "Name": "FAMILYMART USM Sg Dua",
        "Address": "723 S-G, Vanda Business Park, Jalan Sungai Dua, 11700 Gelugor, Penang",
        "Postcode": 11700,
        "Coordinates": "5.3519079,100.2991828",
        "State": "Pulau Pinang",
        "District": "Gelugor"
      }
    },
    {
      "type": "Feature",
      "geometry": {
        "type": "Point",
        "coordinates": [
          100.7313679,
          4.8660982
        ]
      },
      "properties": {
        "Name": "FAMILYMART Taiping Sentral Mall",
        "Address": "G-01 & G-02 of Taiping Sentral Mall, No. 36, Jalan Istana Larut, 34000 Taiping, Perak",
        "Postcode": 34000,
        "Coordinates": "4.8660982,100.7313679",
        "State": "Perak",
        "District": "Taiping"
      }
    },
    {
      "type": "Feature",
      "geometry": {
        "type": "Point",
        "coordinates": [
          103.9008332,
          1.7293155
        ]
      },
      "properties": {
        "Name": "FAMILYMART Kota Tinggi",
        "Address": "No. 9, Jalan Niaga Utama, 81900 Kota Tinggi, Johor",
        "Postcode": 81900,
        "Coordinates": "1.7293155,103.9008332",
        "State": "Johor",
        "District": "Kota Tinggi"
      }
    },
    {
      "type": "Feature",
      "geometry": {
        "type": "Point",
        "coordinates": [
          101.0822352,
          4.6266259
        ]
      },
      "properties": {
        "Name": "FAMILYMART Gunung Lang",
        "Address": "NO 109C, Jln. Kuala Kangsar, 30010 Ipoh, Perak",
        "Postcode": 30010,
        "Coordinates": "4.6266259,101.0822352",
        "State": "Perak",
        "District": "Ipoh"
      }
    },
    {
      "type": "Feature",
      "geometry": {
        "type": "Point",
        "coordinates": [
          100.2748494,
          5.3294555
        ]
      },
      "properties": {
        "Name": "FAMILYMART Golden Triangle 2",
        "Address": "35-1-1 and 35-1-2, Golden Triangle 2, Jalan Dato' Ismail Hashim, 11900 Bayan Lepas, Penang",
        "Postcode": 11900,
        "Coordinates": "5.3294555,100.2748494",
        "State": "Pulau Pinang",
        "District": "Bayan Lepas"
      }
    },
    {
      "type": "Feature",
      "geometry": {
        "type": "Point",
        "coordinates": [
          100.4813972,
          5.178556899999999
        ]
      },
      "properties": {
        "Name": "FAMILYMART C-Mart Nibong Tebal",
        "Address": "Unit 62 & 63a, C Mart Nibong Tebal, Taman Perindustrian Nibong Tebal, 14300 Nibong Tebal, Penang",
        "Postcode": 14300,
        "Coordinates": "5.178556899999999,100.4813972",
        "State": "Pulau Pinang",
        "District": "Nibong Tebal"
      }
    },
    {
      "type": "Feature",
      "geometry": {
        "type": "Point",
        "coordinates": [
          101.1252209,
          4.6057469
        ]
      },
      "properties": {
        "Name": "FAMILYMART Caltex Tambun",
        "Address": "PT 126050, Jalan Tambun, 31400 Ipoh, Perak",
        "Postcode": 31400,
        "Coordinates": "4.6057469,101.1252209",
        "State": "Perak",
        "District": "Ipoh"
      }
    },
    {
      "type": "Feature",
      "geometry": {
        "type": "Point",
        "coordinates": [
          101.8350087,
          2.9013313
        ]
      },
      "properties": {
        "Name": "FAMILYMART Eco Majestic",
        "Address": "No. 43-1, Jalan Eco Majestic 10/1A, Eco Majestic, 43500 Semenyih, Selangor",
        "Postcode": 43500,
        "Coordinates": "2.9013313,101.8350087",
        "State": "Selangor",
        "District": "Semenyih"
      }
    },
    {
      "type": "Feature",
      "geometry": {
        "type": "Point",
        "coordinates": [
          103.7187232,
          1.5015824
        ]
      },
      "properties": {
        "Name": "FAMILYMART Bandar Baru Uda",
        "Address": "No 29, Jalan Padi Ria, Bandar Baru Uda, 81200 Johor Bahru, Johor",
        "Postcode": 81200,
        "Coordinates": "1.5015824,103.7187232",
        "State": "Johor",
        "District": "Johor Bahru"
      }
    },
    {
      "type": "Feature",
      "geometry": {
        "type": "Point",
        "coordinates": [
          100.2718465,
          5.2802124
        ]
      },
      "properties": {
        "Name": "FAMILYMART Caltex Batu Maung",
        "Address": "Jalan Batu Maung, Diamond Valley Industrial Park, 11960 Batu Maung, Pulau Pinang",
        "Postcode": 11960,
        "Coordinates": "5.2802124,100.2718465",
        "State": "Pulau Pinang",
        "District": "Batu Maung"
      }
    },
    {
      "type": "Feature",
      "geometry": {
        "type": "Point",
        "coordinates": [
          101.0898303,
          4.592815
        ]
      },
      "properties": {
        "Name": "FAMILYMART SOHO Ipoh",
        "Address": "Block D,G-9 Soho Ipoh, Jalan Sultan Idris Shah, 30000 Ipoh, Perak",
        "Postcode": 30000,
        "Coordinates": "4.592815,101.0898303",
        "State": "Perak",
        "District": "Ipoh"
      }
    },
    {
      "type": "Feature",
      "geometry": {
        "type": "Point",
        "coordinates": [
          101.7031904,
          3.2037668
        ]
      },
      "properties": {
        "Name": "FAMILYMART KL Trader Square",
        "Address": "11-G (GF), Plaza KL Traders Square, Block A, Jalan Gombak, 53000 Kuala Lumpur",
        "Postcode": 53000,
        "Coordinates": "3.2037668,101.7031904",
        "State": "Wp Kuala Lumpur",
        "District": "Kuala Lumpur"
      }
    },
    {
      "type": "Feature",
      "geometry": {
        "type": "Point",
        "coordinates": [
          104.2197901,
          1.572272
        ]
      },